neighborhood,title,price,bedrooms,pid,sourcepage,link,date,sqft,longitude,latitude
napa county,Angwin One Bedroom Apartment with Attached Garage,900.0,1.0,4761862751,http://sfbay.craigslist.org/search/nby/apa,http://sfbay.craigslist.org/nby/apa/4761862751.html,2014-11-14 15:34,600.0,-122.44773400000001,38.570648999999996
santa rosa,NORTH EAST BEAUTY IN A SERENE SETTING,1705.0,2.0,4755262130,http://sfbay.craigslist.org/search/nby/apa,http://sfbay.craigslist.org/nby/apa/4755262130.html,2014-11-14 15:32,,-122.65741799999999,38.463301
healdsburg / windsor,Home for Rent,2400.0,4.0,4761860339,http://sfbay.craigslist.org/search/nby/apa,http://sfbay.craigslist.org/nby/apa/4761860339.html,2014-11-14 15:32,2000.0,-122.826844,38.547632
napa county, 2400 SQ FT MODERN HOME- ONLY 4 YEARS OLD- WALK TO DOWNTOWN,2550.0,3.0,4748347140,http://sfbay.craigslist.org/search/nby/apa,http://sfbay.craigslist.org/nby/apa/4748347140.html,2014-11-14 15:20,2400.0,-122.30041399999999,38.2879
santa rosa,***STUDIO FOR RENT***,975.0,,4761837194,http://sfbay.craigslist.org/search/nby/apa,http://sfbay.craigslist.org/nby/apa/4761837194.html,2014-11-14 15:16,416.0,-122.74305600000001,38.437422
rohnert pk / cotati,Walking distance to Sonoma State University,1600.0,2.0,4761804546,http://sfbay.craigslist.org/search/nby/apa,http://sfbay.craigslist.org/nby/apa/4761804546.html,2014-11-14 15:12,1150.0,,
san rafael,"Come Look and Lease, Swimming Pool, Washer Dryer in Unit",2624.0,2.0,4761820345,http://sfbay.craigslist.org/search/nby/apa,http://sfbay.craigslist.org/nby/apa/4761820345.html,2014-11-14 15:09,970.0,-122.532205,38.021326
petaluma,Relocating from out of town? Let us find your new home!,1755.0,2.0,4761805108,http://sfbay.craigslist.org/search/nby/apa,http://sfbay.craigslist.org/nby/apa/4761805108.html,2014-11-14 15:09,885.0,-122.59192900000001,38.239340999999996
hayes valley,Top Floor Apartment in Hayes Valley Victorian,3995.0,2.0,4755473292,http://sfbay.craigslist.org/search/sfc/apa,http://sfbay.craigslist.org/sfc/apa/4755473292.html,2014-11-14 15:35,950.0,-122.428873,37.775108
,1bedroom/1bathroom condo for rent,3000.0,1.0,4761672091,http://sfbay.craigslist.org/search/sfc/apa,http://sfbay.craigslist.org/sfc/apa/4761672091.html,2014-11-14 15:34,,-122.417332,37.763571999999996
lower nob hill,Holy Rent Controlled Studio! City Views in the lively Polk Gulch Hood!,2531.0,,4761802382,http://sfbay.craigslist.org/search/sfc/apa,http://sfbay.craigslist.org/sfc/apa/4761802382.html,2014-11-14 15:33,435.0,-122.41916100000002,37.788845
mission district,BEAUTIFUL Corner Unit 2 BEDROOM - AWESOME LOCATION,3895.0,2.0,4716871274,http://sfbay.craigslist.org/search/sfc/apa,http://sfbay.craigslist.org/sfc/apa/4716871274.html,2014-11-14 15:33,1000.0,-122.421977,37.743978999999996
castro / upper market,Amazing Location/Hardwood Floors/Pet Friendly/Available NOW!,3395.0,1.0,4756748849,http://sfbay.craigslist.org/search/sfc/apa,http://sfbay.craigslist.org/sfc/apa/4756748849.html,2014-11-14 15:32,,-122.42893600000001,37.767364
glen park,Beautifully Remodeled 2 Bedroom Apt. ,2850.0,2.0,4761858822,http://sfbay.craigslist.org/search/sfc/apa,http://sfbay.craigslist.org/sfc/apa/4761858822.html,2014-11-14 15:31,,-122.440063,37.730731
bernal heights,Open Sat 1-1:30 Open Floor Plan Updated LARGE One bedroom plus!,3100.0,1.0,4761814236,http://sfbay.craigslist.org/search/sfc/apa,http://sfbay.craigslist.org/sfc/apa/4761814236.html,2014-11-14 15:30,,-122.410655,37.747389
inner richmond,Free private bed room+bath room for Full Time Student ,,,4761855706,http://sfbay.craigslist.org/search/sfc/apa,http://sfbay.craigslist.org/sfc/apa/4761855706.html,2014-11-14 15:29,,-122.49240900000001,37.786521
cole valley / ashbury hts,"lovely, light filled Edwardian Apartment",3100.0,1.0,4761854308,http://sfbay.craigslist.org/search/sfc/apa,http://sfbay.craigslist.org/sfc/apa/4761854308.html,2014-11-14 15:28,1000.0,-122.44977,37.764866
west marin,Studio apartment w/ parking,2400.0,,4761818862,http://sfbay.craigslist.org/search/nby/apa,http://sfbay.craigslist.org/nby/apa/4761818862.html,2014-11-14 15:03,550.0,-122.429464,37.796898
novato,Open House Sun 12-2. Remodeled Ranch at the end of Quiet Cul-de-Sac ,2950.0,3.0,4761774594,http://sfbay.craigslist.org/search/nby/apa,http://sfbay.craigslist.org/nby/apa/4761774594.html,2014-11-14 15:02,1633.0,-122.58006100000001,38.101503
santa rosa,"Perfect location! Bennett Valley 2bd/1ba unit, carport, central heat",1275.0,2.0,4761815399,http://sfbay.craigslist.org/search/nby/apa,http://sfbay.craigslist.org/nby/apa/4761815399.html,2014-11-14 15:01,,-122.66301599999998,38.428687
napa county,PHENOMENAL 1BD NORTH-WEST NAPA GUEST HOME ON ACERAGE W/ VINEYARD VIEW,2500.0,1.0,4735677767,http://sfbay.craigslist.org/search/nby/apa,http://sfbay.craigslist.org/nby/apa/4735677767.html,2014-11-14 15:00,600.0,-122.351087,38.341813
napa county,"PHENOMENAL, COMPLETELY RENOVATED 3BD SINGLE-LEVEL HOME",2600.0,3.0,4748113629,http://sfbay.craigslist.org/search/nby/apa,http://sfbay.craigslist.org/nby/apa/4748113629.html,2014-11-14 15:00,,,
napa county,LIGHT & BRIGHT 3BEDROOM SINGLE-LEVEL NAPA HOME,2100.0,3.0,4758195544,http://sfbay.craigslist.org/search/nby/apa,http://sfbay.craigslist.org/nby/apa/4758195544.html,2014-11-14 14:59,1500.0,-122.28107800000001,38.317076
napa county,STUNNING 3 BEDROOM 2-STORY SHEVLAND RANCH SOUTH NAPA HOME,2300.0,3.0,4758138210,http://sfbay.craigslist.org/search/nby/apa,http://sfbay.craigslist.org/nby/apa/4758138210.html,2014-11-14 14:59,1800.0,-122.2564,38.4549
santa rosa,OVER 728 SQ. FT.! 1X1 DELUXE UNIT WITH GRANITE & WOOD FLOORING,1829.0,1.0,4761797202,http://sfbay.craigslist.org/search/nby/apa,http://sfbay.craigslist.org/nby/apa/4761797202.html,2014-11-14 14:59,728.0,-122.748828,38.467366
marina / cow hollow,Great Marina Building,3250.0,1.0,4761838985,http://sfbay.craigslist.org/search/sfc/apa,http://sfbay.craigslist.org/sfc/apa/4761838985.html,2014-11-14 15:25,875.0,-122.44498899999999,37.802104
SOMA / south beach,"2 Bed, 2 Bath - 12th FL Condo @ SOMA GRAND - Furnished",5300.0,2.0,4758264205,http://sfbay.craigslist.org/search/sfc/apa,http://sfbay.craigslist.org/sfc/apa/4758264205.html,2014-11-14 15:22,1250.0,-122.419825,37.766674
mission district,Newly Updated 1 BR + Den/Private Balcony/In-unit washer dyer/Avail NOW,3495.0,1.0,4751211791,http://sfbay.craigslist.org/search/sfc/apa,http://sfbay.craigslist.org/sfc/apa/4751211791.html,2014-11-14 15:20,,-122.42903100000001,37.758835
pacific heights,"Elegant 3 bedroom, 1 block from Lafayette Park",7650.0,3.0,4736208297,http://sfbay.craigslist.org/search/sfc/apa,http://sfbay.craigslist.org/sfc/apa/4736208297.html,2014-11-14 15:18,,-122.42726,37.789743
alamo square / nopa,Elegant Deluxe remodeled Victorian OPEN weekend,3295.0,1.0,4761836839,http://sfbay.craigslist.org/search/sfc/apa,http://sfbay.craigslist.org/sfc/apa/4761836839.html,2014-11-14 15:15,,-122.43978100000001,37.773782000000004
SOMA / south beach,Tri-Level loft with Private Deck - Amazing Views!,550.0,2.0,4761823285,http://sfbay.craigslist.org/search/sfc/apa,http://sfbay.craigslist.org/sfc/apa/4761823285.html,2014-11-14 15:15,1505.0,-122.39293700000002,37.786068
SF,*** 2 BEDROOM 2 BATH APARTMENT,,,4761831125,http://sfbay.craigslist.org/search/sfc/apa,http://sfbay.craigslist.org/sfc/apa/4761831125.html,2014-11-14 15:11,,,
USF / panhandle,Jr one bedr full sep granite kitch bath hall,1699.0,1.0,4761812320,http://sfbay.craigslist.org/search/sfc/apa,http://sfbay.craigslist.org/sfc/apa/4761812320.html,2014-11-14 15:11,400.0,,
glen park,"UpperFlat in SafeNeighborhd w IncredibleView nr BART, MUNI, GoogleStop",3100.0,2.0,4761829891,http://sfbay.craigslist.org/search/sfc/apa,http://sfbay.craigslist.org/sfc/apa/4761829891.html,2014-11-14 15:11,1000.0,-122.43974299999999,37.731584000000005
fremont / union city / newark,"2BR, & 3BR Apartments Available with Upgrades",2713.0,,4761829181,http://sfbay.craigslist.org/search/eby/apa,http://sfbay.craigslist.org/eby/apa/4761829181.html,2014-11-14 15:35,,,
oakland lake merritt / grand,Studio/Lake area,1195.0,,4761853061,http://sfbay.craigslist.org/search/eby/apa,http://sfbay.craigslist.org/eby/apa/4761853061.html,2014-11-14 15:35,418.0,,
oakland lake merritt / grand,Adams Point/Lake area,2295.0,2.0,4752553530,http://sfbay.craigslist.org/search/eby/apa,http://sfbay.craigslist.org/eby/apa/4752553530.html,2014-11-14 15:34,10520.0,-122.255645,37.812378
brentwood / oakley,Two Story 3/2,1900.0,3.0,4750929111,http://sfbay.craigslist.org/search/eby/apa,http://sfbay.craigslist.org/eby/apa/4750929111.html,2014-11-14 15:33,,,
oakland lake merritt / grand,Adams Point/Lake area,1495.0,1.0,4752552471,http://sfbay.craigslist.org/search/eby/apa,http://sfbay.craigslist.org/eby/apa/4752552471.html,2014-11-14 15:33,9440.0,-122.255623,37.812360999999996
berkeley north / hills, Spacious Bright Studio walk to BART,1800.0,,4750441955,http://sfbay.craigslist.org/search/eby/apa,http://sfbay.craigslist.org/eby/apa/4750441955.html,2014-11-14 15:33,,-122.28838,37.872125
dublin / pleasanton / livermore,"Great deal! 2 bed, 2 bath, immediate move,!!!",2435.0,2.0,4761801387,http://sfbay.craigslist.org/search/eby/apa,http://sfbay.craigslist.org/eby/apa/4761801387.html,2014-11-14 15:32,1002.0,-121.910468,37.710562
dublin / pleasanton / livermore,Fantastic Location- Right Next to BART!,2265.0,1.0,4761826227,http://sfbay.craigslist.org/search/eby/apa,http://sfbay.craigslist.org/eby/apa/4761826227.html,2014-11-14 15:31,769.0,-121.897902,37.703210999999996
sunnyvale,Ground Floor Unit- all new laminate style flooring!,1950.0,1.0,4738854338,http://sfbay.craigslist.org/search/sby/apa,http://sfbay.craigslist.org/sby/apa/4738854338.html,2014-11-14 15:30,700.0,-122.03007099999999,37.338853
sunnyvale,Newly Remodeled Apartment Homes!,1845.0,,4725349514,http://sfbay.craigslist.org/search/sby/apa,http://sfbay.craigslist.org/sby/apa/4725349514.html,2014-11-14 15:29,,-122.028871,37.381040000000006
san jose south,Best Location! Best Special! Best Three Bedroom! Hurry!,2149.0,3.0,4761856263,http://sfbay.craigslist.org/search/sby/apa,http://sfbay.craigslist.org/sby/apa/4761856263.html,2014-11-14 15:29,1235.0,-121.817462,37.251543
sunnyvale,Recently Remodeled Apartments Home,2495.0,2.0,4758166144,http://sfbay.craigslist.org/search/sby/apa,http://sfbay.craigslist.org/sby/apa/4758166144.html,2014-11-14 15:29,,-122.028871,37.381040000000006
san jose west,Gorgeous duplex in Desired Willow Glen Neighborhood!!!!!,2495.0,3.0,4761850253,http://sfbay.craigslist.org/search/sby/apa,http://sfbay.craigslist.org/sby/apa/4761850253.html,2014-11-14 15:29,1100.0,-121.900466,37.318821
san jose north,only 7 yrs old / 1br 1bth condo- 825 sq ft - $1660 (san jose north),1660.0,1.0,4761854475,http://sfbay.craigslist.org/search/sby/apa,http://sfbay.craigslist.org/sby/apa/4761854475.html,2014-11-14 15:28,825.0,-121.910048,37.361681
santa clara,World-class Two Bedroom in Great Location! Fitness Ctr! Pool and Spa!,2483.0,2.0,4761836370,http://sfbay.craigslist.org/search/sby/apa,http://sfbay.craigslist.org/sby/apa/4761836370.html,2014-11-14 15:27,1120.0,-121.953,37.3492
mountain view, $499 Deposit ! Recently Remodeled Apartments Home,1925.0,1.0,4725351378,http://sfbay.craigslist.org/search/pen/apa,http://sfbay.craigslist.org/pen/apa/4725351378.html,2014-11-14 15:29,,-122.10399299999999,37.401162
san mateo,LAST ONE LEFT! Spacious Top Floor 1x1 in New Building. 1 month FREE!,3330.0,1.0,4745965341,http://sfbay.craigslist.org/search/pen/apa,http://sfbay.craigslist.org/pen/apa/4745965341.html,2014-11-14 15:29,915.0,-122.307,37.549296000000005
mountain view, Recently Rermodeled 2x2 Apartmant Home,2495.0,2.0,4728445094,http://sfbay.craigslist.org/search/pen/apa,http://sfbay.craigslist.org/pen/apa/4728445094.html,2014-11-14 15:29,,-122.10399299999999,37.401162
mountain view, Recently Rermodeled 2x2 Apartmant Home,2495.0,2.0,4758159850,http://sfbay.craigslist.org/search/pen/apa,http://sfbay.craigslist.org/pen/apa/4758159850.html,2014-11-14 15:29,790.0,-122.10399299999999,37.401162
palo alto,Palo Alto 2 Large Master Bedrooms - Gunn High,2850.0,2.0,4761855175,http://sfbay.craigslist.org/search/pen/apa,http://sfbay.craigslist.org/pen/apa/4761855175.html,2014-11-14 15:28,1250.0,,
mountain view, $499 Deposit ! Recently Remodeled Apartments Home,1925.0,1.0,4758170021,http://sfbay.craigslist.org/search/pen/apa,http://sfbay.craigslist.org/pen/apa/4758170021.html,2014-11-14 15:28,,-122.10399299999999,37.401162
palo alto,West Palo Alto. great patios and views.,2395.0,1.0,4751289631,http://sfbay.craigslist.org/search/pen/apa,http://sfbay.craigslist.org/pen/apa/4751289631.html,2014-11-14 15:25,715.0,-122.131126,37.400352000000005
palo alto,2BR/1BA Condo with W/D in unit and private patio,2750.0,2.0,4761845248,http://sfbay.craigslist.org/search/pen/apa,http://sfbay.craigslist.org/pen/apa/4761845248.html,2014-11-14 15:21,906.0,-122.120268,37.444301
santa rosa,$2500/4BR/2BA/House for Rent,2500.0,4.0,4761811262,http://sfbay.craigslist.org/search/nby/apa,http://sfbay.craigslist.org/nby/apa/4761811262.html,2014-11-14 14:58,,-122.66509599999999,38.47211
santa rosa,1st floor 2 Bed/2 Bath. Bennett Valley. W/D. PET FRIENDLY.,1815.0,2.0,4761748675,http://sfbay.craigslist.org/search/nby/apa,http://sfbay.craigslist.org/nby/apa/4761748675.html,2014-11-14 14:55,1000.0,-122.66377,38.426782
tiburon / belvedere,Only One at This Price - Renovated Apartment in The Heart of Marin,4000.0,2.0,4761703023,http://sfbay.craigslist.org/search/nby/apa,http://sfbay.craigslist.org/nby/apa/4761703023.html,2014-11-14 14:50,1075.0,-122.499192,37.895069
santa rosa,3 Bed/2 Bath Apt in Beautiful Bennett Valley,2015.0,3.0,4717631426,http://sfbay.craigslist.org/search/nby/apa,http://sfbay.craigslist.org/nby/apa/4717631426.html,2014-11-14 14:50,1150.0,-122.66381299999999,38.427
san rafael,"CENTRAL SAN RAFAEL! WALK TO Whole Foods,Trader Joe's & DOWNTOWN!",3950.0,4.0,4744917060,http://sfbay.craigslist.org/search/nby/apa,http://sfbay.craigslist.org/nby/apa/4744917060.html,2014-11-14 14:48,1500.0,-122.51483200000001,37.974143
napa county,3 bdrm American Canyon Home Close to High School! ,2000.0,,4761792228,http://sfbay.craigslist.org/search/nby/apa,http://sfbay.craigslist.org/nby/apa/4761792228.html,2014-11-14 14:46,,-122.2553,38.1668
santa rosa,LOVE WHERE YOU LIVE!,1705.0,2.0,4761779674,http://sfbay.craigslist.org/search/nby/apa,http://sfbay.craigslist.org/nby/apa/4761779674.html,2014-11-14 14:43,,-122.657354,38.463032
santa rosa,1299+ Free WiFi Half Block from Safeway School Hardwood Floors h,1299.0,1.0,4753441329,http://sfbay.craigslist.org/search/nby/apa,http://sfbay.craigslist.org/nby/apa/4753441329.html,2014-11-14 14:43,600.0,-122.752177,38.449606
cole valley / ashbury hts,Showing this Sunday: 2BD/2BA with parking,4295.0,2.0,4761760056,http://sfbay.craigslist.org/search/sfc/apa,http://sfbay.craigslist.org/sfc/apa/4761760056.html,2014-11-14 15:10,,-122.44573799999999,37.763048
potrero hill,"One of a kind, 1 bedroom 1.5 bath 2-story loft",3495.0,1.0,4761818083,http://sfbay.craigslist.org/search/sfc/apa,http://sfbay.craigslist.org/sfc/apa/4761818083.html,2014-11-14 15:10,,-122.3971,37.7621
inner sunset / UCSF,Must See Top Floor Studio Apartment by Golden Gate Park,2095.0,,4761827373,http://sfbay.craigslist.org/search/sfc/apa,http://sfbay.craigslist.org/sfc/apa/4761827373.html,2014-11-14 15:09,,-122.469654,37.765783
russian hill,Exquisite Furnished Apartment in Russian Hill ,4300.0,1.0,4761819160,http://sfbay.craigslist.org/search/sfc/apa,http://sfbay.craigslist.org/sfc/apa/4761819160.html,2014-11-14 15:08,,-122.4186,37.7917
twin peaks / diamond hts,Remodeled 2-level condo with views from on top of San Francisco,3995.0,2.0,4761817096,http://sfbay.craigslist.org/search/sfc/apa,http://sfbay.craigslist.org/sfc/apa/4761817096.html,2014-11-14 15:08,1146.0,-122.44421899999999,37.755584000000006
SOMA / south beach,Stunning 1 Bedroom in the Heart of SF! Make 1190 Mission Home Today!,3074.0,1.0,4761693953,http://sfbay.craigslist.org/search/sfc/apa,http://sfbay.craigslist.org/sfc/apa/4761693953.html,2014-11-14 15:07,,-122.41303400000001,37.777555
noe valley,Open Sat 12-12:45 - Three Bdrm Flat - VIEWS - Top Floor,4850.0,3.0,4761812089,http://sfbay.craigslist.org/search/sfc/apa,http://sfbay.craigslist.org/sfc/apa/4761812089.html,2014-11-14 15:07,1200.0,-122.426448,37.753904
hayes valley,2200 Sunny VW Quiet TOP FL lndry elev. HEART OF H.V.**OPEN SUN 3:30-4*,2200.0,,4761821454,http://sfbay.craigslist.org/search/sfc/apa,http://sfbay.craigslist.org/sfc/apa/4761821454.html,2014-11-14 15:05,,-122.42151299999999,37.775871
marina / cow hollow,Awesome Marina Spacious Corner Apartment,3550.0,1.0,4761811613,http://sfbay.craigslist.org/search/sfc/apa,http://sfbay.craigslist.org/sfc/apa/4761811613.html,2014-11-14 14:58,925.0,-122.44498899999999,37.802104
vallejo / benicia,"3 bedroom, 1 bath Apt. for rent",1350.0,3.0,4746292638,http://sfbay.craigslist.org/search/eby/apa,http://sfbay.craigslist.org/eby/apa/4746292638.html,2014-11-14 15:31,,-122.2474,38.1053
oakland downtown,3b-409|Premium Finishes| Corner Suite|Park View,3382.0,2.0,4761851006,http://sfbay.craigslist.org/search/eby/apa,http://sfbay.craigslist.org/eby/apa/4761851006.html,2014-11-14 15:30,1120.0,-122.27019299999999,37.809038
concord / pleasant hill / martinez,Beautiful Virginia Hills 3/2 ranch,2200.0,3.0,4761857414,http://sfbay.craigslist.org/search/eby/apa,http://sfbay.craigslist.org/eby/apa/4761857414.html,2014-11-14 15:30,1251.0,,
walnut creek,Best Location! Top Floor One Bedroom Apt.! Washer&Dryer!,1985.0,1.0,4761844135,http://sfbay.craigslist.org/search/eby/apa,http://sfbay.craigslist.org/eby/apa/4761844135.html,2014-11-14 15:29,600.0,-122.05816999999999,37.90222
fremont / union city / newark,Fremont Bell - Remodeled Two-Bedroom in Excellent Location ,1875.0,2.0,4761847327,http://sfbay.craigslist.org/search/eby/apa,http://sfbay.craigslist.org/eby/apa/4761847327.html,2014-11-14 15:29,850.0,-121.98955900000001,37.54907
oakland downtown,3a-115|Studio w/ Washer Dryer| Patio,2129.0,,4761846167,http://sfbay.craigslist.org/search/eby/apa,http://sfbay.craigslist.org/eby/apa/4761846167.html,2014-11-14 15:28,525.0,-122.270397,37.809554999999996
fremont / union city / newark,"Charming 2x2 with walk in closet, vaulted ceiling & corner unit!",2510.0,2.0,4761769127,http://sfbay.craigslist.org/search/eby/apa,http://sfbay.craigslist.org/eby/apa/4761769127.html,2014-11-14 15:28,1036.0,,
santa clara,A MUST tour today Studio ! ,1450.0,,4761822704,http://sfbay.craigslist.org/search/sby/apa,http://sfbay.craigslist.org/sby/apa/4761822704.html,2014-11-14 15:27,386.0,-121.9844,37.3483
sunnyvale,Stunning 2 Bed 2 Bath w/ Granite Countertops and Modern Finishes!,2885.0,2.0,4761739423,http://sfbay.craigslist.org/search/sby/apa,http://sfbay.craigslist.org/sby/apa/4761739423.html,2014-11-14 15:26,987.0,-121.996071,37.406240000000004
milpitas,"2nd Floor, 2X1 Apartment, Heated Pool, Gym, Pet Friendly, Call Today",2100.0,2.0,4761706821,http://sfbay.craigslist.org/search/sby/apa,http://sfbay.craigslist.org/sby/apa/4761706821.html,2014-11-14 15:26,820.0,-121.895,37.4352
sunnyvale,"Great 1 bed/1 bath apartment available from December 18, 2014",1899.0,1.0,4761851347,http://sfbay.craigslist.org/search/sby/apa,http://sfbay.craigslist.org/sby/apa/4761851347.html,2014-11-14 15:26,,-122.0238,37.3764
sunnyvale,Spacious 1x1 apt and ready to move in. 1/2 month off move in special.,2125.0,1.0,4761823994,http://sfbay.craigslist.org/search/sby/apa,http://sfbay.craigslist.org/sby/apa/4761823994.html,2014-11-14 15:25,717.0,-122.00397,37.368441
san jose north,Your Morning Commute Just Got Easier!,2252.0,2.0,4761801614,http://sfbay.craigslist.org/search/sby/apa,http://sfbay.craigslist.org/sby/apa/4761801614.html,2014-11-14 15:25,983.0,-121.881552,37.402885999999995
sunnyvale,"Newer appliances, flooring, granite counter-tops! Sparkling pool!",2295.0,2.0,4761832142,http://sfbay.craigslist.org/search/sby/apa,http://sfbay.craigslist.org/sby/apa/4761832142.html,2014-11-14 15:24,,-122.055793,37.380765000000004
santa clara,Spacious 2 bed 2 bath luxury living!,3135.0,2.0,4761778514,http://sfbay.craigslist.org/search/sby/apa,http://sfbay.craigslist.org/sby/apa/4761778514.html,2014-11-14 15:24,1248.0,-121.9623,37.3924
daly city,Amazing view! Natural sunlight! 2 bedroom - 2 bath + den!,3119.0,2.0,4761812114,http://sfbay.craigslist.org/search/pen/apa,http://sfbay.craigslist.org/pen/apa/4761812114.html,2014-11-14 15:20,1183.0,,
redwood city,Welcome to Montecito West! Close to shopping & more! ,2098.0,1.0,4761840826,http://sfbay.craigslist.org/search/pen/apa,http://sfbay.craigslist.org/pen/apa/4761840826.html,2014-11-14 15:18,,-122.22418799999998,37.464452
san mateo,Centrally Located Luxury Apartments at Mode by Alta,2890.0,1.0,4761745608,http://sfbay.craigslist.org/search/pen/apa,http://sfbay.craigslist.org/pen/apa/4761745608.html,2014-11-14 15:18,764.0,-122.30594199999999,37.549960999999996
daly city,Come Home to your newly Renovated 2 bed 2 bath Available NOW,2745.0,2.0,4761822812,http://sfbay.craigslist.org/search/pen/apa,http://sfbay.craigslist.org/pen/apa/4761822812.html,2014-11-14 15:17,915.0,-122.47751000000001,37.666897999999996
east palo alto,Secluded Duplex Home near University Ave (some utilities included),1800.0,1.0,4761835568,http://sfbay.craigslist.org/search/pen/apa,http://sfbay.craigslist.org/pen/apa/4761835568.html,2014-11-14 15:15,,,
woodside,"Private Redwood Retreat, Minutes to 280",7500.0,3.0,4723651625,http://sfbay.craigslist.org/search/pen/apa,http://sfbay.craigslist.org/pen/apa/4723651625.html,2014-11-14 15:14,3450.0,-122.32255,37.437861
south san francisco,"Large SSF apt., brand new, 2-car parking. ~ J.Wavro",2600.0,2.0,4761831489,http://sfbay.craigslist.org/search/pen/apa,http://sfbay.craigslist.org/pen/apa/4761831489.html,2014-11-14 15:12,,-122.431083,37.659633
daly city,Lovely floor plan! 2 bedroom 2.5 bath townhouse! 1052 sqft!,3087.0,2.0,4761793924,http://sfbay.craigslist.org/search/pen/apa,http://sfbay.craigslist.org/pen/apa/4761793924.html,2014-11-14 15:12,1052.0,,
palo alto,Spectacular Townhouse In Newer Palo Alto Complex. Garage.,4195.0,3.0,4752335848,http://sfbay.craigslist.org/search/pen/apa,http://sfbay.craigslist.org/pen/apa/4752335848.html,2014-11-14 15:11,1326.0,-122.10629899999999,37.428976
santa rosa,Free WiFi Granite Tops 1/2 Block from Safeway School Hardwood Floors h,1599.0,2.0,4744737114,http://sfbay.craigslist.org/search/nby/apa,http://sfbay.craigslist.org/nby/apa/4744737114.html,2014-11-14 14:43,900.0,-122.752177,38.449606
napa county,Renovated and spacious 4 bdrm 2 bath downtown Napa home,3000.0,4.0,4758535846,http://sfbay.craigslist.org/search/nby/apa,http://sfbay.craigslist.org/nby/apa/4758535846.html,2014-11-14 14:39,,-122.2841,38.2904
napa county,Spacious 2 bdrm 2 1/2 bath home with bonus room!,2100.0,2.0,4758532033,http://sfbay.craigslist.org/search/nby/apa,http://sfbay.craigslist.org/nby/apa/4758532033.html,2014-11-14 14:39,,,
santa rosa,Executive fully furnished estate home on six acres,4750.0,4.0,4757565101,http://sfbay.craigslist.org/search/nby/apa,http://sfbay.craigslist.org/nby/apa/4757565101.html,2014-11-14 14:39,3000.0,-122.6878,38.4534
santa rosa,2 bd/2ba Avail. Early December *Fireplace * Washer/Dryer *,1815.0,2.0,4743255274,http://sfbay.craigslist.org/search/nby/apa,http://sfbay.craigslist.org/nby/apa/4743255274.html,2014-11-14 14:38,,-122.65778300000001,38.464006
santa rosa,Large One Bedroom Apartments Near Coddingtown Mall,1190.0,1.0,4761728767,http://sfbay.craigslist.org/search/nby/apa,http://sfbay.craigslist.org/nby/apa/4761728767.html,2014-11-14 14:36,620.0,,
napa county,UPDATED NAPA TOWNHOUSE 3BD/1.5 BA FP YARD WITH PARK NEXT DOOR,2100.0,3.0,4761763254,http://sfbay.craigslist.org/search/nby/apa,http://sfbay.craigslist.org/nby/apa/4761763254.html,2014-11-14 14:33,,-122.32900900000001,38.327215
rohnert pk / cotati,Spacious 4 bedroom home in Rohnert Park's G section! - See more at: ht,1950.0,4.0,4761769139,http://sfbay.craigslist.org/search/nby/apa,http://sfbay.craigslist.org/nby/apa/4761769139.html,2014-11-14 14:31,1610.0,-122.70513999999999,38.361984
bayview,Come See Sat. AM Unique Bright Warehouse Live Work Studio,3450.0,1.0,4761785738,http://sfbay.craigslist.org/search/sfc/apa,http://sfbay.craigslist.org/sfc/apa/4761785738.html,2014-11-14 14:58,2000.0,-122.38511899999999,37.72786
bayview,"Luxury Apartments, Private Balcony, Modern Fitness Center",4003.0,2.0,4761780629,http://sfbay.craigslist.org/search/sfc/apa,http://sfbay.craigslist.org/sfc/apa/4761780629.html,2014-11-14 14:58,1612.0,-122.392625,37.711324
western addition,Beautiful 2 bedroom - Pets ok! Redone!,3650.0,2.0,4738007005,http://sfbay.craigslist.org/search/sfc/apa,http://sfbay.craigslist.org/sfc/apa/4738007005.html,2014-11-14 14:56,,-122.438617,37.779049
inner sunset / UCSF,LARGE STUDIO FOR RENT-OCEAN VIEW-BEAUTIFUL FLAT-CLOSE TO UCSF,1850.0,,4758019403,http://sfbay.craigslist.org/search/sfc/apa,http://sfbay.craigslist.org/sfc/apa/4758019403.html,2014-11-14 14:56,,,
laurel hts / presidio,Beautifully Renovated Apartment w/ High End Finishes OPEN SAT @ 2pm,2995.0,1.0,4758360970,http://sfbay.craigslist.org/search/sfc/apa,http://sfbay.craigslist.org/sfc/apa/4758360970.html,2014-11-14 14:56,,-122.44766499999999,37.789004999999996
inner richmond,Nice 2 bd/2 bathrooms condo! OPEN 11/15 Noon to 1 pm,3000.0,2.0,4761806932,http://sfbay.craigslist.org/search/sfc/apa,http://sfbay.craigslist.org/sfc/apa/4761806932.html,2014-11-14 14:55,,-122.458371,37.774309
bernal heights,"Fabulous View Flat, Huge Private Deck, Garage",4000.0,3.0,4761802738,http://sfbay.craigslist.org/search/sfc/apa,http://sfbay.craigslist.org/sfc/apa/4761802738.html,2014-11-14 14:53,,,
pacific heights,Large and Bright Studio!,2750.0,,4750749088,http://sfbay.craigslist.org/search/sfc/apa,http://sfbay.craigslist.org/sfc/apa/4750749088.html,2014-11-14 14:50,543.0,-122.42505700000001,37.795527
pacific heights,"Junior 1 bedroom, Pet Friendly",2950.0,,4754978822,http://sfbay.craigslist.org/search/sfc/apa,http://sfbay.craigslist.org/sfc/apa/4754978822.html,2014-11-14 14:50,543.0,-122.42505700000001,37.795527
oakland downtown,2-306|Loft Inspired |Dogs Welcome,2316.0,1.0,4761844922,http://sfbay.craigslist.org/search/eby/apa,http://sfbay.craigslist.org/eby/apa/4761844922.html,2014-11-14 15:27,776.0,-122.271781,37.808682
pittsburg / antioch,"Big Three BR Single Family, Recently Remodeled, Two Bath, Lots of Park",1485.0,3.0,4761690430,http://sfbay.craigslist.org/search/eby/apa,http://sfbay.craigslist.org/eby/apa/4761690430.html,2014-11-14 15:27,1612.0,,
pittsburg / antioch,"Relax by the lake, spacious 2b/2b",1515.0,2.0,4761815299,http://sfbay.craigslist.org/search/eby/apa,http://sfbay.craigslist.org/eby/apa/4761815299.html,2014-11-14 15:27,986.0,-121.864673,38.008321
fremont / union city / newark,Fully-equipped fitness center on-site!,2215.0,2.0,4761840329,http://sfbay.craigslist.org/search/eby/apa,http://sfbay.craigslist.org/eby/apa/4761840329.html,2014-11-14 15:27,870.0,-121.97737099999999,37.542636
hayward / castro valley,Hayward Home w/ 2 Bath & Garage....Available Now!,2000.0,3.0,4761852287,http://sfbay.craigslist.org/search/eby/apa,http://sfbay.craigslist.org/eby/apa/4761852287.html,2014-11-14 15:26,1000.0,-122.075874,37.624233000000004
dublin / pleasanton / livermore,3BD/2Ba Luxury Condo Terraces Dublin Ranch,2760.0,3.0,4761832602,http://sfbay.craigslist.org/search/eby/apa,http://sfbay.craigslist.org/eby/apa/4761832602.html,2014-11-14 15:25,1246.0,-121.861124,37.706063
san leandro,Clean Home For Rent,1800.0,2.0,4761850787,http://sfbay.craigslist.org/search/eby/apa,http://sfbay.craigslist.org/eby/apa/4761850787.html,2014-11-14 15:25,,-122.159516,37.731643
oakland downtown,2-212|Loft Inspired|Corner Suite |Dogs Welcome,2316.0,1.0,4761843494,http://sfbay.craigslist.org/search/eby/apa,http://sfbay.craigslist.org/eby/apa/4761843494.html,2014-11-14 15:24,776.0,-122.27221000000002,37.808775
sunnyvale,Nicely updated apartment! Sparking pool! Great location! Available NOW,1595.0,1.0,4761848679,http://sfbay.craigslist.org/search/sby/apa,http://sfbay.craigslist.org/sby/apa/4761848679.html,2014-11-14 15:24,,-122.009863,37.388905
san jose west,Perfect location in San Jose most desirable neighborhood!!!!,1695.0,2.0,4761847951,http://sfbay.craigslist.org/search/sby/apa,http://sfbay.craigslist.org/sby/apa/4761847951.html,2014-11-14 15:23,800.0,-121.96460900000001,37.30084
sunnyvale,"Located in the heart of Silicon Valley. Quiet, One Level, Ready Dec 6",1900.0,1.0,4761847389,http://sfbay.craigslist.org/search/sby/apa,http://sfbay.craigslist.org/sby/apa/4761847389.html,2014-11-14 15:23,615.0,-122.01308700000001,37.357759
san jose downtown,Bright Large New Modern Granite Remodel w/ Gated Parking * PHOTOS *,1495.0,1.0,4739404550,http://sfbay.craigslist.org/search/sby/apa,http://sfbay.craigslist.org/sby/apa/4739404550.html,2014-11-14 15:23,,-121.867557,37.32617
san jose south,2 Bedroom 2 Bath For Immediate Move In!!,2360.0,2.0,4761845561,http://sfbay.craigslist.org/search/sby/apa,http://sfbay.craigslist.org/sby/apa/4761845561.html,2014-11-14 15:21,1016.0,-121.871879,37.243916
san jose west,Stunning San Jose Custom Home!,4350.0,4.0,4761765983,http://sfbay.craigslist.org/search/sby/apa,http://sfbay.craigslist.org/sby/apa/4761765983.html,2014-11-14 15:21,2577.0,-121.9356,37.3163
cupertino,Walking Distance to Best Cupertino Schools!,3864.0,3.0,4761826753,http://sfbay.craigslist.org/search/sby/apa,http://sfbay.craigslist.org/sby/apa/4761826753.html,2014-11-14 15:20,1508.0,-122.00227,37.322842
san jose south,"**Immaculate! 4 Bedroom 2.5 Bath Remodeled 2,000 sf, Large Yard**",3200.0,4.0,4761843910,http://sfbay.craigslist.org/search/sby/apa,http://sfbay.craigslist.org/sby/apa/4761843910.html,2014-11-14 15:20,1968.0,-121.785926,37.249528999999995
san jose west,Cute 1 Bedroom Cottage ,1500.0,1.0,4761827342,http://sfbay.craigslist.org/search/sby/apa,http://sfbay.craigslist.org/sby/apa/4761827342.html,2014-11-14 15:18,700.0,,
palo alto,Wonderful Apartment Home @ Oak Creek!!,3567.0,2.0,4761751831,http://sfbay.craigslist.org/search/pen/apa,http://sfbay.craigslist.org/pen/apa/4761751831.html,2014-11-14 15:09,942.0,-122.185275,37.432337
san mateo,One Bedroom One Bath!! With Garage!!,2407.0,1.0,4761802739,http://sfbay.craigslist.org/search/pen/apa,http://sfbay.craigslist.org/pen/apa/4761802739.html,2014-11-14 15:08,745.0,-122.26517199999999,37.556265
redwood city,Redwood PLaza Village Complex 55+,1450.0,1.0,4761805167,http://sfbay.craigslist.org/search/pen/apa,http://sfbay.craigslist.org/pen/apa/4761805167.html,2014-11-14 15:08,564.0,-122.225426,37.484612
redwood city,Completely Remodeled and Upgraded Apartment,1795.0,1.0,4761823910,http://sfbay.craigslist.org/search/pen/apa,http://sfbay.craigslist.org/pen/apa/4761823910.html,2014-11-14 15:06,500.0,-122.22309399999999,37.470005
palo alto,Spacious Two Bedroom 1 1/2bath in College Terrace ,2900.0,2.0,4761822907,http://sfbay.craigslist.org/search/pen/apa,http://sfbay.craigslist.org/pen/apa/4761822907.html,2014-11-14 15:06,1000.0,-122.14797,37.4236
menlo park,Charming studio with convenient Menlo Park location,1300.0,,4761821976,http://sfbay.craigslist.org/search/pen/apa,http://sfbay.craigslist.org/pen/apa/4761821976.html,2014-11-14 15:05,,-122.201518,37.431605
palo alto,Absolutely Amazing Views In This Community! Spacious Two Bedroom,5385.0,2.0,4761777186,http://sfbay.craigslist.org/search/pen/apa,http://sfbay.craigslist.org/pen/apa/4761777186.html,2014-11-14 15:04,945.0,-122.156875,37.446638
millbrae,Lovely Spanish Style 2BR 1 BA Home in Great Neighborhood,4100.0,2.0,4729901083,http://sfbay.craigslist.org/search/pen/apa,http://sfbay.craigslist.org/pen/apa/4729901083.html,2014-11-14 15:03,1600.0,-122.39343999999998,37.600906
kentfield / ross,"Close To Everything, But Nothing Even Comes Close..",1585.0,1.0,4761749646,http://sfbay.craigslist.org/search/nby/apa,http://sfbay.craigslist.org/nby/apa/4761749646.html,2014-11-14 14:30,600.0,-122.538859,38.011446
napa county,Fairgrounds Mobile Estates has beautiful rentals for you!,1695.0,,4737398587,http://sfbay.craigslist.org/search/nby/apa,http://sfbay.craigslist.org/nby/apa/4737398587.html,2014-11-14 14:30,,,
santa rosa,CALLING ALL DOGS! NO WEIGHT LIMIT/FEW RESTRICTED BREEDS,1815.0,2.0,4728165388,http://sfbay.craigslist.org/search/nby/apa,http://sfbay.craigslist.org/nby/apa/4728165388.html,2014-11-14 14:29,1000.0,-122.66391999999999,38.426967
petaluma,Two Story Townhouse(1400 sq.ft.),2100.0,3.0,4761760879,http://sfbay.craigslist.org/search/nby/apa,http://sfbay.craigslist.org/nby/apa/4761760879.html,2014-11-14 14:26,1400.0,-122.60203,38.24991
novato,"Beautiful Stonetree Home, Fantastic Kitchen, Views!",5700.0,5.0,4758445719,http://sfbay.craigslist.org/search/nby/apa,http://sfbay.craigslist.org/nby/apa/4758445719.html,2014-11-14 14:25,4910.0,-122.50648500000001,38.101704999999995
petaluma,Spaciaous Loft in the Heart of Downtown Petaluma!!,1852.0,,4761740692,http://sfbay.craigslist.org/search/nby/apa,http://sfbay.craigslist.org/nby/apa/4761740692.html,2014-11-14 14:25,648.0,-122.637496,38.233515999999995
san rafael,Open House tomorrow from 10am-1pm,1850.0,1.0,4761743736,http://sfbay.craigslist.org/search/nby/apa,http://sfbay.craigslist.org/nby/apa/4761743736.html,2014-11-14 14:25,,-122.546504,38.006561
tiburon / belvedere,"Epic Bay Views W/ Private Deck, Pool, Walk to Town!",3750.0,2.0,4761755184,http://sfbay.craigslist.org/search/nby/apa,http://sfbay.craigslist.org/nby/apa/4761755184.html,2014-11-14 14:22,1209.0,-122.460283,37.880826
excelsior / outer mission,"Bright, Airy 3br/2ba Like New Flat w/ Parking, Laundry & Views",3200.0,3.0,4761782800,http://sfbay.craigslist.org/search/sfc/apa,http://sfbay.craigslist.org/sfc/apa/4761782800.html,2014-11-14 14:48,,-122.433379,37.719677000000004
SOMA / south beach,Stunning 2 Bedroom in the Heart of SF! Move to 1190 Mission today!,4037.0,2.0,4761691094,http://sfbay.craigslist.org/search/sfc/apa,http://sfbay.craigslist.org/sfc/apa/4761691094.html,2014-11-14 14:45,,-122.41303400000001,37.777555
castro / upper market,Studio in The Castro,2095.0,,4761789462,http://sfbay.craigslist.org/search/sfc/apa,http://sfbay.craigslist.org/sfc/apa/4761789462.html,2014-11-14 14:44,,-122.437299,37.761895
SOMA / south beach,South Beach Condo w/ Stunning Bay View & Parking!,5400.0,2.0,4758460360,http://sfbay.craigslist.org/search/sfc/apa,http://sfbay.craigslist.org/sfc/apa/4758460360.html,2014-11-14 14:40,,-122.391249,37.784918
SOMA / south beach,Stunning Jr 1 Bedroom in the Heart of SF! Make 1190 Mission Home!,2297.0,1.0,4761696834,http://sfbay.craigslist.org/search/sfc/apa,http://sfbay.craigslist.org/sfc/apa/4761696834.html,2014-11-14 14:37,,-122.41303400000001,37.777555
ingleside / SFSU / CCSF,2x1 Townhome with Garden Patio!,3105.0,2.0,4761749447,http://sfbay.craigslist.org/search/sfc/apa,http://sfbay.craigslist.org/sfc/apa/4761749447.html,2014-11-14 14:35,950.0,-122.4754,37.7211
russian hill,Charming 1BD with Views in Prime Russian Hill | OPEN HOUSE MON 11/17,2850.0,1.0,4740161761,http://sfbay.craigslist.org/search/sfc/apa,http://sfbay.craigslist.org/sfc/apa/4740161761.html,2014-11-14 14:35,,-122.41589099999999,37.799611999999996
hayes valley,$3975 Totally remodeled 2BR 5 Clos Heart of Hayes Valley lndry ,3975.0,2.0,4761763038,http://sfbay.craigslist.org/search/sfc/apa,http://sfbay.craigslist.org/sfc/apa/4761763038.html,2014-11-14 14:31,,-122.423294,37.774887
nob hill,Large Private room in Great Location!,2200.0,1.0,4761731159,http://sfbay.craigslist.org/search/sfc/apa,http://sfbay.craigslist.org/sfc/apa/4761731159.html,2014-11-14 14:31,,,
lafayette / orinda / moraga,"Vanguard Apartments - Spacious 2 Bedroom, 2 Bath Apartment Home!",2045.0,2.0,4761847629,http://sfbay.craigslist.org/search/eby/apa,http://sfbay.craigslist.org/eby/apa/4761847629.html,2014-11-14 15:23,1150.0,-122.12663799999999,37.856041999999995
lafayette / orinda / moraga,"Rheem Apartments - Lovely and Spacious Three Bed, Two Bath Apartment",2895.0,3.0,4761846728,http://sfbay.craigslist.org/search/eby/apa,http://sfbay.craigslist.org/eby/apa/4761846728.html,2014-11-14 15:22,,-122.127279,37.853811
concord / pleasant hill / martinez,Lotus Apartments - One Bedroom Apartment Coming Soon,1150.0,1.0,4761821478,http://sfbay.craigslist.org/search/eby/apa,http://sfbay.craigslist.org/eby/apa/4761821478.html,2014-11-14 15:22,670.0,-122.131372,37.993363
hayward / castro valley,Hayward Triplex...Available Now,1500.0,2.0,4761830410,http://sfbay.craigslist.org/search/eby/apa,http://sfbay.craigslist.org/eby/apa/4761830410.html,2014-11-14 15:21,,-122.081274,37.648732
san leandro,Nice San Leandro Apartment...Available Now!,1495.0,2.0,4751015805,http://sfbay.craigslist.org/search/eby/apa,http://sfbay.craigslist.org/eby/apa/4751015805.html,2014-11-14 15:19,,-122.151476,37.717228999999996
fremont / union city / newark,Brand New Apartment For Rent 1 br,1500.0,1.0,4754040060,http://sfbay.craigslist.org/search/eby/apa,http://sfbay.craigslist.org/eby/apa/4754040060.html,2014-11-14 15:19,,-122.032,37.5368
dublin / pleasanton / livermore,1388 Great deal 1bd 1 bath APT,1388.0,,4761818750,http://sfbay.craigslist.org/search/eby/apa,http://sfbay.craigslist.org/eby/apa/4761818750.html,2014-11-14 15:19,,-121.730275,37.68073
Martinez,THIS IS A LARGE HOME FOR THE PRICE IN A GREAT AREA,2085.0,3.0,4761683143,http://sfbay.craigslist.org/search/eby/apa,http://sfbay.craigslist.org/eby/apa/4761683143.html,2014-11-14 15:18,,,
willow glen / cambrian,Neighborly & Friendly ~*~*~ 1bedroom Available on November 18th!,2094.0,1.0,4761768591,http://sfbay.craigslist.org/search/sby/apa,http://sfbay.craigslist.org/sby/apa/4761768591.html,2014-11-14 15:17,780.0,,
santa clara,You'll love the atmosphere of this community!,1730.0,1.0,4761830678,http://sfbay.craigslist.org/search/sby/apa,http://sfbay.craigslist.org/sby/apa/4761830678.html,2014-11-14 15:17,676.0,-121.953,37.3492
santa clara,Great quiet location. Come and relax,1525.0,,4752084175,http://sfbay.craigslist.org/search/sby/apa,http://sfbay.craigslist.org/sby/apa/4752084175.html,2014-11-14 15:16,420.0,-121.99476499999999,37.334428
san jose north,"Huge 1 BR/1 Bath - Close to Major Hwys, shopping & parks",2061.0,1.0,4761824058,http://sfbay.craigslist.org/search/sby/apa,http://sfbay.craigslist.org/sby/apa/4761824058.html,2014-11-14 15:15,836.0,-121.889132,37.386524
san jose north,North San Jose's Hidden Treasure ,1999.0,1.0,4761727441,http://sfbay.craigslist.org/search/sby/apa,http://sfbay.craigslist.org/sby/apa/4761727441.html,2014-11-14 15:14,732.0,,
santa clara,Ready for Move In! Nestled In the Heart of Santa Clara! ,1730.0,1.0,4761832727,http://sfbay.craigslist.org/search/sby/apa,http://sfbay.craigslist.org/sby/apa/4761832727.html,2014-11-14 15:13,676.0,-121.95283400000001,37.349911999999996
san jose downtown,Make Them Go Oh Oh Oh on your Townhome with more Space & Style,2820.0,2.0,4761777997,http://sfbay.craigslist.org/search/sby/apa,http://sfbay.craigslist.org/sby/apa/4761777997.html,2014-11-14 15:12,1204.0,,
millbrae,Lovely Spanish Style 2BR 1 BA Home,3400.0,2.0,4749283109,http://sfbay.craigslist.org/search/pen/apa,http://sfbay.craigslist.org/pen/apa/4749283109.html,2014-11-14 15:03,,-122.397856,37.594495
Mountain View 94040,Move-In Today! Starting At $2400 in Mountain View,2400.0,,4755255650,http://sfbay.craigslist.org/search/pen/apa,http://sfbay.craigslist.org/pen/apa/4755255650.html,2014-11-14 15:03,,,
mountain view,"Beautiful 2BR/2BA Apartment in Mountain View, Yours Today!",3500.0,2.0,4761816096,http://sfbay.craigslist.org/search/pen/apa,http://sfbay.craigslist.org/pen/apa/4761816096.html,2014-11-14 15:01,965.0,,
mountain view,"Great location just blocks to downtown! Small building, nicely updated",1950.0,1.0,4761800238,http://sfbay.craigslist.org/search/pen/apa,http://sfbay.craigslist.org/pen/apa/4761800238.html,2014-11-14 15:00,,-122.090193,37.389109000000005
belmont,"Available November! Pet friendly! Nicely updated, in great location",2000.0,1.0,4761775216,http://sfbay.craigslist.org/search/pen/apa,http://sfbay.craigslist.org/pen/apa/4761775216.html,2014-11-14 15:00,,-122.28156399999999,37.523755
redwood city,"Remodeled 3 bedroom, 1.5 bathroom west-side Redwood City apartment",2500.0,3.0,4761813327,http://sfbay.craigslist.org/search/pen/apa,http://sfbay.craigslist.org/pen/apa/4761813327.html,2014-11-14 15:00,,-122.225932,37.459602000000004
foster city,We know how home should feel,2463.0,1.0,4761793261,http://sfbay.craigslist.org/search/pen/apa,http://sfbay.craigslist.org/pen/apa/4761793261.html,2014-11-14 14:59,730.0,-122.271468,37.535658000000005
mountain view,1BR/1BA Apartment with a Complete Kitchen Appliance Package,2445.0,1.0,4761758280,http://sfbay.craigslist.org/search/pen/apa,http://sfbay.craigslist.org/pen/apa/4761758280.html,2014-11-14 14:58,705.0,,
petaluma,Don't wait! These spacious apartment homes are going fast!,2606.0,2.0,4761736247,http://sfbay.craigslist.org/search/nby/apa,http://sfbay.craigslist.org/nby/apa/4761736247.html,2014-11-14 14:20,1263.0,-122.637496,38.233515999999995
napa county,Apply Today Move In Tomorrow!,1699.0,1.0,4761698099,http://sfbay.craigslist.org/search/nby/apa,http://sfbay.craigslist.org/nby/apa/4761698099.html,2014-11-14 14:11,985.0,-122.285424,38.316324
santa rosa,"LUXURY LIVING, RESORT AMENITIES AND DESIGNER APARTMENTS",1620.0,1.0,4761724880,http://sfbay.craigslist.org/search/nby/apa,http://sfbay.craigslist.org/nby/apa/4761724880.html,2014-11-14 14:10,,-122.672825,38.454966999999996
san rafael,Deluxe 1 Bed/1Bath in Terra Linda,1850.0,1.0,4761716536,http://sfbay.craigslist.org/search/nby/apa,http://sfbay.craigslist.org/nby/apa/4761716536.html,2014-11-14 14:10,649.0,-122.546504,38.006561
rohnert pk / cotati,Walking distance to Sonoma State University,1700.0,2.0,4761722858,http://sfbay.craigslist.org/search/nby/apa,http://sfbay.craigslist.org/nby/apa/4761722858.html,2014-11-14 14:06,1150.0,-122.706847,38.344558
napa county,1B/1B Available Now to Move In! Two weeks FREE! ,1275.0,1.0,4761701424,http://sfbay.craigslist.org/search/nby/apa,http://sfbay.craigslist.org/nby/apa/4761701424.html,2014-11-14 14:01,690.0,,
san rafael,Only 2 Bedroom Available! Call Now Before It's To Late! ,2425.0,2.0,4761703678,http://sfbay.craigslist.org/search/nby/apa,http://sfbay.craigslist.org/nby/apa/4761703678.html,2014-11-14 13:58,954.0,-122.5105,37.9691
san rafael,Conveniently Located in the Heart of Central San Rafael!,1765.0,1.0,4736202649,http://sfbay.craigslist.org/search/nby/apa,http://sfbay.craigslist.org/nby/apa/4736202649.html,2014-11-14 13:57,650.0,-122.52767800000001,37.98745
napa county,Three Bdrm Townhome w/NEW Plank Flooring! AVAIL NOW!,3100.0,3.0,4761714532,http://sfbay.craigslist.org/search/nby/apa,http://sfbay.craigslist.org/nby/apa/4761714532.html,2014-11-14 13:56,1615.0,-122.294124,38.276344
SOMA / south beach,"2BD/2BA Infinity Tower II, Parking, Hardwood,byAMSI DAWN CUSULOS ",5000.0,2.0,4761675589,http://sfbay.craigslist.org/search/sfc/apa,http://sfbay.craigslist.org/sfc/apa/4761675589.html,2014-11-14 14:30,,-122.3892,37.7864
potrero hill,November Move In's Free With Deposit- New Building,4150.0,2.0,4761678555,http://sfbay.craigslist.org/search/sfc/apa,http://sfbay.craigslist.org/sfc/apa/4761678555.html,2014-11-14 14:30,874.0,-122.388727,37.762786
SOMA / south beach,OPEN HOUSE Saturday 11/15/14 3pm-5pm,4830.0,,4761760548,http://sfbay.craigslist.org/search/sfc/apa,http://sfbay.craigslist.org/sfc/apa/4761760548.html,2014-11-14 14:29,,-122.39121399999999,37.77409
pacific heights,Lovely Pacific Heights Unit in Prime Location- Parking Included,3500.0,1.0,4761765820,http://sfbay.craigslist.org/search/sfc/apa,http://sfbay.craigslist.org/sfc/apa/4761765820.html,2014-11-14 14:29,1050.0,,
noe valley,$1695 ready to move in now ,1695.0,,4761759923,http://sfbay.craigslist.org/search/sfc/apa,http://sfbay.craigslist.org/sfc/apa/4761759923.html,2014-11-14 14:25,,-122.42648899999999,37.7421
SOMA / south beach,Beautiful 25th Floor Infinity- Luxury Condo - ReLISTO,6795.0,2.0,4761707603,http://sfbay.craigslist.org/search/sfc/apa,http://sfbay.craigslist.org/sfc/apa/4761707603.html,2014-11-14 14:24,1320.0,,
SOMA / south beach,Unbelievable Price for An Unbelievable One Bed! $500 Deposit Special!,2999.0,1.0,4761596025,http://sfbay.craigslist.org/search/sfc/apa,http://sfbay.craigslist.org/sfc/apa/4761596025.html,2014-11-14 14:19,,-122.413003,37.77758
hayward / castro valley,Castro Valley Apartment...$500 Move In Bonus...Available Now!,1425.0,2.0,4754988588,http://sfbay.craigslist.org/search/eby/apa,http://sfbay.craigslist.org/eby/apa/4754988588.html,2014-11-14 15:17,,-122.076374,37.681531
Pleasanton,THIS IS A LARGE HOME FOR THE PRICE IN A GREAT AREA,2630.0,3.0,4761688333,http://sfbay.craigslist.org/search/eby/apa,http://sfbay.craigslist.org/eby/apa/4761688333.html,2014-11-14 15:17,,,
hayward / castro valley,Mobile Home Space Available in Hayward,625.0,,4756497438,http://sfbay.craigslist.org/search/eby/apa,http://sfbay.craigslist.org/eby/apa/4756497438.html,2014-11-14 15:16,,-122.118275,37.665831
san leandro,San Leandro Apartment...2 Bath...Available Now!,1650.0,2.0,4749026398,http://sfbay.craigslist.org/search/eby/apa,http://sfbay.craigslist.org/eby/apa/4749026398.html,2014-11-14 15:16,,,
fremont / union city / newark,"Appealing Amenities, Covered Parking, Air Conditioning, Ceiling Fan",2000.0,1.0,4761830918,http://sfbay.craigslist.org/search/eby/apa,http://sfbay.craigslist.org/eby/apa/4761830918.html,2014-11-14 15:16,710.0,-121.975812,37.566054
san leandro,Spacious San Leandro In-Law Unit...Located in the Manor Area,1295.0,1.0,4725003877,http://sfbay.craigslist.org/search/eby/apa,http://sfbay.craigslist.org/eby/apa/4725003877.html,2014-11-14 15:16,,-122.150176,37.688629999999996
milpitas,Upgraded 3BR/2BA Condo close to school and park,2475.0,3.0,4758697468,http://sfbay.craigslist.org/search/sby/apa,http://sfbay.craigslist.org/sby/apa/4758697468.html,2014-11-14 15:12,,-121.915742,37.4422
sunnyvale,Wow! Great 2 Bedrm Next To Trader Joes 101 Frwy & Caltrain!View Today!,3850.0,2.0,4761789220,http://sfbay.craigslist.org/search/sby/apa,http://sfbay.craigslist.org/sby/apa/4761789220.html,2014-11-14 15:12,1021.0,-122.034683,37.368445
milpitas,2 bed/1 bath Move-in ASAP $250 OFF FIRST MONTH'S RENT,2395.0,2.0,4761831056,http://sfbay.craigslist.org/search/sby/apa,http://sfbay.craigslist.org/sby/apa/4761831056.html,2014-11-14 15:11,935.0,-121.8899,37.408072
san jose north,great large walk in closets ready to move in today! call now!,3275.0,2.0,4761668735,http://sfbay.craigslist.org/search/sby/apa,http://sfbay.craigslist.org/sby/apa/4761668735.html,2014-11-14 15:11,1282.0,-121.9406,37.4087
san jose south,Charming and cozy 1br/1ba cottage with fresh paint and new carpets,1550.0,1.0,4752445215,http://sfbay.craigslist.org/search/sby/apa,http://sfbay.craigslist.org/sby/apa/4752445215.html,2014-11-14 15:11,600.0,-121.932566,37.260143
san jose downtown,Charming Studio in Downtown San Jose.A/C.Parking. Close to SAP Center.,1195.0,,4755154156,http://sfbay.craigslist.org/search/sby/apa,http://sfbay.craigslist.org/sby/apa/4755154156.html,2014-11-14 15:10,400.0,-121.90404099999999,37.337416
santa clara,Nestled In the Heart of Santa Clara! ,1730.0,1.0,4761829049,http://sfbay.craigslist.org/search/sby/apa,http://sfbay.craigslist.org/sby/apa/4761829049.html,2014-11-14 15:10,676.0,-121.95283400000001,37.349911999999996
willow glen / cambrian,1 bed/1 bath Condo for Rent (820 sq ft),2100.0,1.0,4761827604,http://sfbay.craigslist.org/search/sby/apa,http://sfbay.craigslist.org/sby/apa/4761827604.html,2014-11-14 15:09,820.0,,
san jose south,"Temp Furnished lodging, Master Suite Furnished Bedroom, Private",2100.0,1.0,4752201050,http://sfbay.craigslist.org/search/sby/apa,http://sfbay.craigslist.org/sby/apa/4752201050.html,2014-11-14 15:09,,-121.85923600000001,37.282453000000004
daly city,"AMSI - Large 3-Level 4Bd/3Ba House, Beautifully Updated Great Location",4100.0,4.0,4742913392,http://sfbay.craigslist.org/search/pen/apa,http://sfbay.craigslist.org/pen/apa/4742913392.html,2014-11-14 14:57,3100.0,-122.478,37.6787
daly city,Fully Furnished 1 Bedroom Commuter Apartment,1500.0,1.0,4761802592,http://sfbay.craigslist.org/search/pen/apa,http://sfbay.craigslist.org/pen/apa/4761802592.html,2014-11-14 14:52,600.0,-122.468655,37.656645000000005
san mateo,This Is A Must See Apartment,3425.0,2.0,4761693087,http://sfbay.craigslist.org/search/pen/apa,http://sfbay.craigslist.org/pen/apa/4761693087.html,2014-11-14 14:52,1170.0,-122.325998,37.560763
belmont,"Downstairs, 1x1 apartment. Available NOW! Prices range $1995-$2095",1995.0,1.0,4761799414,http://sfbay.craigslist.org/search/pen/apa,http://sfbay.craigslist.org/pen/apa/4761799414.html,2014-11-14 14:50,,-122.2927,37.5174
redwood city,"2B Beautiful Community Near Facebook! $1,000 Off Rent-Call for details",3595.0,2.0,4761772937,http://sfbay.craigslist.org/search/pen/apa,http://sfbay.craigslist.org/pen/apa/4761772937.html,2014-11-14 14:49,1090.0,-122.228476,37.480737
belmont,Urban Chic in Beautiful Belmont Hills,1875.0,1.0,4761797459,http://sfbay.craigslist.org/search/pen/apa,http://sfbay.craigslist.org/pen/apa/4761797459.html,2014-11-14 14:49,740.0,-122.302479,37.509937
palo alto,Historic Professorville downtown Craftsman home,4965.0,2.0,4761794523,http://sfbay.craigslist.org/search/pen/apa,http://sfbay.craigslist.org/pen/apa/4761794523.html,2014-11-14 14:47,800.0,-122.15533,37.441675
santa rosa,Beautiful Two Story Townhome SR,1875.0,3.0,4755334208,http://sfbay.craigslist.org/search/nby/apa,http://sfbay.craigslist.org/nby/apa/4755334208.html,2014-11-14 13:56,1300.0,,
san rafael,Only 2 Bedroom Available! Call Now Before It's To Late! ,2375.0,2.0,4761704466,http://sfbay.craigslist.org/search/nby/apa,http://sfbay.craigslist.org/nby/apa/4761704466.html,2014-11-14 13:55,954.0,-122.5105,37.9691
santa rosa,"Spacious Two Story, 2.5 bath home in Courtside Village",2150.0,3.0,4757310411,http://sfbay.craigslist.org/search/nby/apa,http://sfbay.craigslist.org/nby/apa/4757310411.html,2014-11-14 13:55,2356.0,-122.7339,38.4089
napa county,"Charming furn. patio Apt., Napa Nov15",1275.0,1.0,4761710441,http://sfbay.craigslist.org/search/nby/apa,http://sfbay.craigslist.org/nby/apa/4761710441.html,2014-11-14 13:54,360.0,,
san rafael,Beautifully Remodeled Home! ,3700.0,3.0,4761697326,http://sfbay.craigslist.org/search/nby/apa,http://sfbay.craigslist.org/nby/apa/4761697326.html,2014-11-14 13:46,,-122.55351999999999,37.997313
santa rosa,Near Downtown Santa Rosa & Railroad Square!,1850.0,2.0,4761685111,http://sfbay.craigslist.org/search/nby/apa,http://sfbay.craigslist.org/nby/apa/4761685111.html,2014-11-14 13:39,,-122.71795,38.431186
rohnert pk / cotati,Amazing Move In special Renovated 1bedroom1bath Up stairs,1399.0,1.0,4761680619,http://sfbay.craigslist.org/search/nby/apa,http://sfbay.craigslist.org/nby/apa/4761680619.html,2014-11-14 13:36,670.0,-122.70849799999999,38.341814
rohnert pk / cotati," Large Remodel, 2bed/1bath, NO SMOKING in Rohnert Park",1475.0,2.0,4722435316,http://sfbay.craigslist.org/search/nby/apa,http://sfbay.craigslist.org/nby/apa/4722435316.html,2014-11-14 13:32,1000.0,-122.703698,38.336314
SOMA / south beach,37th Floor Corner Two Bedroom With Wrap-Around Terrace!!,7635.0,2.0,4761643438,http://sfbay.craigslist.org/search/sfc/apa,http://sfbay.craigslist.org/sfc/apa/4761643438.html,2014-11-14 14:18,1192.0,-122.402025,37.786248
pacific heights,Spacious Jr 1 Bedroom,2100.0,1.0,4761746552,http://sfbay.craigslist.org/search/sfc/apa,http://sfbay.craigslist.org/sfc/apa/4761746552.html,2014-11-14 14:16,,-122.4413,37.7712
SOMA / south beach,Charming Corner Alcove Studio Available In Luxury SOMA Tower!!,3230.0,,4761632486,http://sfbay.craigslist.org/search/sfc/apa,http://sfbay.craigslist.org/sfc/apa/4761632486.html,2014-11-14 14:16,605.0,-122.402025,37.786248
bernal heights,1 Bd w/ ALL UTILITIES! ~ J.Wavro,2750.0,1.0,4761744365,http://sfbay.craigslist.org/search/sfc/apa,http://sfbay.craigslist.org/sfc/apa/4761744365.html,2014-11-14 14:15,,-122.420275,37.739985
SOMA / south beach,"Call for Details, Dog Washing Station, Modern Fitness Center",5685.0,2.0,4761729705,http://sfbay.craigslist.org/search/sfc/apa,http://sfbay.craigslist.org/sfc/apa/4761729705.html,2014-11-14 14:15,963.0,-122.390142,37.77408
downtown / civic / van ness,"Large, Spacious Studio w/ Crown Moldings, Hardwood & Huge Walk-Closet",1895.0,,4758524099,http://sfbay.craigslist.org/search/sfc/apa,http://sfbay.craigslist.org/sfc/apa/4758524099.html,2014-11-14 14:14,,-122.41688,37.786255
mission district,Remodeled - Open Saturday 11/15 from 1:00 to 2:00 pm,3700.0,2.0,4748132981,http://sfbay.craigslist.org/search/sfc/apa,http://sfbay.craigslist.org/sfc/apa/4748132981.html,2014-11-14 14:11,750.0,-122.41833700000001,37.761453
mission district,Brand New 2bed/2bath apartment...NEVER Lived in ready now!!!,5360.0,2.0,4761712274,http://sfbay.craigslist.org/search/sfc/apa,http://sfbay.craigslist.org/sfc/apa/4761712274.html,2014-11-14 14:10,990.0,-122.419825,37.766674
concord / pleasant hill / martinez,Estudillo - One Bedrooms across from the Park and School!,1225.0,1.0,4761822876,http://sfbay.craigslist.org/search/eby/apa,http://sfbay.craigslist.org/eby/apa/4761822876.html,2014-11-14 15:15,,-122.134976,38.015121
fairfield / vacaville,Learn to Love This One-Bedroom Home with a Fully Equipped Kitchen!,1182.0,1.0,4761793515,http://sfbay.craigslist.org/search/eby/apa,http://sfbay.craigslist.org/eby/apa/4761793515.html,2014-11-14 15:14,750.0,-122.019819,38.251119
concord / pleasant hill / martinez,Ground level 2 bedroom Condo,1395.0,2.0,4761834758,http://sfbay.craigslist.org/search/eby/apa,http://sfbay.craigslist.org/eby/apa/4761834758.html,2014-11-14 15:14,900.0,-122.04993,37.94704
walnut creek,"STUDIO, 1BR, & 2BR HOMES AVAILABLE WITH STAINLESS STEEL APPLIANCES!",1718.0,,4761660287,http://sfbay.craigslist.org/search/eby/apa,http://sfbay.craigslist.org/eby/apa/4761660287.html,2014-11-14 15:14,497.0,,
concord / pleasant hill / martinez,"Lotus Apartments - Large Two Bed, One Bath Apartment Home Available!",1350.0,2.0,4761821860,http://sfbay.craigslist.org/search/eby/apa,http://sfbay.craigslist.org/eby/apa/4761821860.html,2014-11-14 15:12,890.0,-122.131372,37.993363
dublin / pleasanton / livermore,"S.E. Livermore home, open house 11/14, 15, 16",2250.0,3.0,4719121202,http://sfbay.craigslist.org/search/eby/apa,http://sfbay.craigslist.org/eby/apa/4719121202.html,2014-11-14 15:12,1100.0,-121.748822,37.677459999999996
Concord,THIS IS A LARGE HOME FOR THE PRICE IN A GREAT AREA,1455.0,3.0,4761674589,http://sfbay.craigslist.org/search/eby/apa,http://sfbay.craigslist.org/eby/apa/4761674589.html,2014-11-14 15:11,,,
pittsburg / antioch,"Now Available, Granite Counters and Tile Floors, Private Storage",1290.0,1.0,4761830697,http://sfbay.craigslist.org/search/eby/apa,http://sfbay.craigslist.org/eby/apa/4761830697.html,2014-11-14 15:11,619.0,-121.872309,38.009633
Antioch,THIS IS A LARGE HOME FOR THE PRICE IN A GREAT AREA,1330.0,4.0,4761672144,http://sfbay.craigslist.org/search/eby/apa,http://sfbay.craigslist.org/eby/apa/4761672144.html,2014-11-14 15:10,,,
mountain view,Park Place South Has a Variety of Apartments to Choose From! Call Now!,3400.0,1.0,4761826902,http://sfbay.craigslist.org/search/sby/apa,http://sfbay.craigslist.org/sby/apa/4761826902.html,2014-11-14 15:09,745.0,-122.0783,37.3893
san jose west,"Elegant, Renovated House",3500.0,3.0,4744749496,http://sfbay.craigslist.org/search/sby/apa,http://sfbay.craigslist.org/sby/apa/4744749496.html,2014-11-14 15:08,1600.0,-121.936741,37.320073
san jose south,"Month, Vacancies Jan-March Top Furnished 3 Bed 3.5 Bth Condo, Quiet ",5895.0,3.0,4758603083,http://sfbay.craigslist.org/search/sby/apa,http://sfbay.craigslist.org/sby/apa/4758603083.html,2014-11-14 15:07,1700.0,-121.85932199999999,37.276921
santa clara,Available - New Remodeled 1 Bedroom,1695.0,1.0,4761811394,http://sfbay.craigslist.org/search/sby/apa,http://sfbay.craigslist.org/sby/apa/4761811394.html,2014-11-14 15:05,,-121.94918600000001,37.354944
sunnyvale,"Ideal location, near schools, parks, top tech companies, hwys 85, 280",2195.0,1.0,4761792406,http://sfbay.craigslist.org/search/sby/apa,http://sfbay.craigslist.org/sby/apa/4761792406.html,2014-11-14 15:04,560.0,-122.05331899999999,37.359253
san jose downtown,Only one loft available!!! Hurry in today!,2250.0,2.0,4761675454,http://sfbay.craigslist.org/search/sby/apa,http://sfbay.craigslist.org/sby/apa/4761675454.html,2014-11-14 15:03,620.0,-121.89281100000001,37.348721000000005
foster city,LIVE THE LIFE OF LUXURY ON THE WATER!,3003.0,2.0,4761770055,http://sfbay.craigslist.org/search/pen/apa,http://sfbay.craigslist.org/pen/apa/4761770055.html,2014-11-14 14:46,,-122.26976,37.556615
mountain view,Nestled on a Tree Lined Street,2700.0,2.0,4761777266,http://sfbay.craigslist.org/search/pen/apa,http://sfbay.craigslist.org/pen/apa/4761777266.html,2014-11-14 14:45,1200.0,-122.06267199999999,37.37984
redwood city,LIVE IN HORSE COUNTRY,7250.0,5.0,4725649101,http://sfbay.craigslist.org/search/pen/apa,http://sfbay.craigslist.org/pen/apa/4725649101.html,2014-11-14 14:43,3800.0,,
redwood city,EXECUTIVE COMTEMPORY HOME IN EMERALD HILLS,6950.0,5.0,4748193460,http://sfbay.craigslist.org/search/pen/apa,http://sfbay.craigslist.org/pen/apa/4748193460.html,2014-11-14 14:43,3800.0,,
san mateo,Amazing 2 bedroom prices at CitySouth!,3141.0,2.0,4761746985,http://sfbay.craigslist.org/search/pen/apa,http://sfbay.craigslist.org/pen/apa/4761746985.html,2014-11-14 14:40,1029.0,-122.28518500000001,37.544253999999995
belmont,Belmont 2BR w/Large Balcony ,2125.0,2.0,4761777601,http://sfbay.craigslist.org/search/pen/apa,http://sfbay.craigslist.org/pen/apa/4761777601.html,2014-11-14 14:36,,-122.292479,37.509237
palo alto,OPEN HOUSE SATURDAY 11am-1pm...EXTRA LARGE STUDIOS...These Go FAST!,1595.0,,4758411998,http://sfbay.craigslist.org/search/pen/apa,http://sfbay.craigslist.org/pen/apa/4758411998.html,2014-11-14 14:33,550.0,-122.137378,37.454762
mountain view,3 Bedroom Condo Near Downtown Mountain View,4200.0,3.0,4761749346,http://sfbay.craigslist.org/search/pen/apa,http://sfbay.craigslist.org/pen/apa/4761749346.html,2014-11-14 14:32,1263.0,-122.081873,37.39184
santa rosa,"BRIGHT & GENEROUS ONE BEDROOM WITH A POOL, SPA & GYM",1459.0,1.0,4761645101,http://sfbay.craigslist.org/search/nby/apa,http://sfbay.craigslist.org/nby/apa/4761645101.html,2014-11-14 13:31,,-122.732778,38.466157
santa rosa,Beautiful Large 4 Bedroom House for Rent,3100.0,4.0,4743288177,http://sfbay.craigslist.org/search/nby/apa,http://sfbay.craigslist.org/nby/apa/4743288177.html,2014-11-14 13:29,2511.0,-122.7547,38.4432
sonoma,Stunning open concept one bedroom ,1250.0,1.0,4761615292,http://sfbay.craigslist.org/search/nby/apa,http://sfbay.craigslist.org/nby/apa/4761615292.html,2014-11-14 13:28,,-122.50993999999999,38.339704
san rafael,"LUSH, PARK-LIKE SETTING IN RESORT ENVIRONMENT-JUST OVER GG BRIDGE",2523.0,2.0,4761665939,http://sfbay.craigslist.org/search/nby/apa,http://sfbay.craigslist.org/nby/apa/4761665939.html,2014-11-14 13:27,,-122.512593,37.920835
tiburon / belvedere,Live LARGE in This Beautiful Top Floor Apartment in The Heart of Marin,4550.0,2.0,4761520211,http://sfbay.craigslist.org/search/nby/apa,http://sfbay.craigslist.org/nby/apa/4761520211.html,2014-11-14 13:23,1080.0,-122.499192,37.895069
sonoma,2 Acres of Beautiful Wine Country!,5950.0,3.0,4750984005,http://sfbay.craigslist.org/search/nby/apa,http://sfbay.craigslist.org/nby/apa/4750984005.html,2014-11-14 13:21,,-122.5547,38.4168
larkspur,LOVE this fully renovated two bedroom! Great community!,3450.0,2.0,4761537489,http://sfbay.craigslist.org/search/nby/apa,http://sfbay.craigslist.org/nby/apa/4761537489.html,2014-11-14 13:20,,-122.5362,37.9367
novato,Stunning One Bedroom with Spacious Patio!,2300.0,1.0,4761612872,http://sfbay.craigslist.org/search/nby/apa,http://sfbay.craigslist.org/nby/apa/4761612872.html,2014-11-14 13:19,815.0,-122.56529099999999,38.101820000000004
san rafael,3/2 Townhome with Great Location for Great Value!,3256.0,3.0,4761639424,http://sfbay.craigslist.org/search/nby/apa,http://sfbay.craigslist.org/nby/apa/4761639424.html,2014-11-14 13:18,1322.0,-122.532261,38.023616
glen park,Single Family Home 2Bedroom,1700.0,2.0,4761686211,http://sfbay.craigslist.org/search/sfc/apa,http://sfbay.craigslist.org/sfc/apa/4761686211.html,2014-11-14 14:06,1050.0,-122.451527,37.7338
noe valley,OPEN SUN 2PM-3PM - Modern Sunny & Quiet Noe Valley Apt,3995.0,2.0,4740064412,http://sfbay.craigslist.org/search/sfc/apa,http://sfbay.craigslist.org/sfc/apa/4740064412.html,2014-11-14 14:04,,-122.42888300000001,37.743565000000004
SOMA / south beach,Gorgeous 36th Floor Corner Studio Available- Dont Miss Out!,3470.0,,4761633750,http://sfbay.craigslist.org/search/sfc/apa,http://sfbay.craigslist.org/sfc/apa/4761633750.html,2014-11-14 14:03,605.0,-122.402025,37.786248
SOMA / south beach,Top Floor Spacious Bi-level Loft by SF Flower Market,4500.0,2.0,4757167154,http://sfbay.craigslist.org/search/sfc/apa,http://sfbay.craigslist.org/sfc/apa/4757167154.html,2014-11-14 14:02,,-122.40040900000001,37.775261
ingleside / SFSU / CCSF,1Bedroom Townhome - Pet Friendly - Open House SATURDAY 11AM- 4PM,2513.0,1.0,4761675821,http://sfbay.craigslist.org/search/sfc/apa,http://sfbay.craigslist.org/sfc/apa/4761675821.html,2014-11-14 14:01,697.0,-122.4754,37.7211
SOMA / south beach,"Quiet,peaceful, studio with a Murphy bed, move in ready, apply today!",2198.0,,4761721805,http://sfbay.craigslist.org/search/sfc/apa,http://sfbay.craigslist.org/sfc/apa/4761721805.html,2014-11-14 14:01,233.0,-122.39747,37.776334999999996
SOMA / south beach,870 Harrison St. #206 - Avail Dec 17,3399.0,1.0,4761703750,http://sfbay.craigslist.org/search/sfc/apa,http://sfbay.craigslist.org/sfc/apa/4761703750.html,2014-11-14 13:59,600.0,-122.401207,37.779534999999996
inner sunset / UCSF,Two Bedroom Lower Flat on Judah Street,2600.0,2.0,4761716359,http://sfbay.craigslist.org/search/sfc/apa,http://sfbay.craigslist.org/sfc/apa/4761716359.html,2014-11-14 13:58,,-122.47592399999999,37.761747
portola district,Unique 1BR Cottage ,1750.0,1.0,4761706543,http://sfbay.craigslist.org/search/sfc/apa,http://sfbay.craigslist.org/sfc/apa/4761706543.html,2014-11-14 13:58,500.0,-122.42061499999998,37.728493
pittsburg / antioch,Lovely Lone Tree Apartments - One Bedroom Apartment in Great Location!,850.0,1.0,4761822226,http://sfbay.craigslist.org/search/eby/apa,http://sfbay.craigslist.org/eby/apa/4761822226.html,2014-11-14 15:09,500.0,-121.798949,37.97013
berkeley north / hills,1BD/1BA with Lots of Light ,1895.0,1.0,4751334124,http://sfbay.craigslist.org/search/eby/apa,http://sfbay.craigslist.org/eby/apa/4751334124.html,2014-11-14 15:08,,-122.25358,37.862226
berkeley north / hills,Great Location! 1BD Across From Campus. ,1850.0,,4747808389,http://sfbay.craigslist.org/search/eby/apa,http://sfbay.craigslist.org/eby/apa/4747808389.html,2014-11-14 15:08,,-122.26437,37.874573999999996
oakland hills / mills,Bright Studio in Tuxedo District ,1095.0,,4758605934,http://sfbay.craigslist.org/search/eby/apa,http://sfbay.craigslist.org/eby/apa/4758605934.html,2014-11-14 15:07,,-122.229279,37.799527000000005
walnut creek,Comfort & Convenience,3700.0,3.0,4761791543,http://sfbay.craigslist.org/search/eby/apa,http://sfbay.craigslist.org/eby/apa/4761791543.html,2014-11-14 15:07,2200.0,-122.06456399999999,37.926292
oakland rockridge / claremont,Charming One Bed Apt - Heart of Rockridge,1750.0,1.0,4761823609,http://sfbay.craigslist.org/search/eby/apa,http://sfbay.craigslist.org/eby/apa/4761823609.html,2014-11-14 15:06,525.0,,
san jose west,West San Jose Home (Coakley Drive),2800.0,3.0,4761818072,http://sfbay.craigslist.org/search/sby/apa,http://sfbay.craigslist.org/sby/apa/4761818072.html,2014-11-14 15:03,1155.0,-121.96299499999999,37.314745
sunnyvale,A True Gem - Peaceful Cozy Home at Kensington Place! Tour Today!,3231.0,2.0,4761776468,http://sfbay.craigslist.org/search/sby/apa,http://sfbay.craigslist.org/sby/apa/4761776468.html,2014-11-14 15:01,1027.0,-122.016671,37.385740000000006
milpitas,Sunny Bright Townhouse 2BR/2.5BA with additional bonus room for rent,2650.0,2.0,4761814524,http://sfbay.craigslist.org/search/sby/apa,http://sfbay.craigslist.org/sby/apa/4761814524.html,2014-11-14 15:00,1353.0,-121.901894,37.417277
cupertino,Spacious NorthPoint townhouse available now!,2995.0,2.0,4734255809,http://sfbay.craigslist.org/search/sby/apa,http://sfbay.craigslist.org/sby/apa/4734255809.html,2014-11-14 15:00,,-122.026702,37.334909
san jose south,ALMADEN-HOUSE-POOL-PETS OK,3795.0,4.0,4761814444,http://sfbay.craigslist.org/search/sby/apa,http://sfbay.craigslist.org/sby/apa/4761814444.html,2014-11-14 15:00,2425.0,-121.87286100000001,37.222384000000005
willow glen / cambrian,We're almost FULL. . . Come in and see why!,2601.0,2.0,4761785648,http://sfbay.craigslist.org/search/sby/apa,http://sfbay.craigslist.org/sby/apa/4761785648.html,2014-11-14 14:58,1090.0,-121.92301599999999,37.309312
gilroy,3 BDRM UPSTAIRS WATER AND GARBAGE INCLUDED,2000.0,3.0,4761793000,http://sfbay.craigslist.org/search/sby/apa,http://sfbay.craigslist.org/sby/apa/4761793000.html,2014-11-14 14:56,1000.0,-121.591229,37.010435
san jose south,Spacious 1x1 at Beautiful Oak Park Apartments!!!,1825.0,1.0,4761731834,http://sfbay.craigslist.org/search/sby/apa,http://sfbay.craigslist.org/sby/apa/4761731834.html,2014-11-14 14:55,675.0,-121.90008300000001,37.252108
san bruno,Mills Park Home in San Bruno- FOR RENT,3800.0,3.0,4761767313,http://sfbay.craigslist.org/search/pen/apa,http://sfbay.craigslist.org/pen/apa/4761767313.html,2014-11-14 14:30,,-122.422104,37.62069
san mateo,All New Appliances/ All New Flooring/ Huge Balcony/ Pool/ Parking ,2225.0,,4739270533,http://sfbay.craigslist.org/search/pen/apa,http://sfbay.craigslist.org/pen/apa/4739270533.html,2014-11-14 14:29,740.0,-122.3225,37.5735
san mateo,All New Gourmet Kithchen/ Granite/ Palm Trees/ Pool/ Huge Balcony ,2225.0,1.0,4731220724,http://sfbay.craigslist.org/search/pen/apa,http://sfbay.craigslist.org/pen/apa/4731220724.html,2014-11-14 14:29,740.0,-122.3225,37.5735
palo alto,OPEN HOUSE SATURDAY 11am-1pm...Furnished Studio! Close to Everything! ,1750.0,,4758139709,http://sfbay.craigslist.org/search/pen/apa,http://sfbay.craigslist.org/pen/apa/4758139709.html,2014-11-14 14:28,535.0,-122.137378,37.454762
pacifica,"Spacious Two Bedroom, Two Bathroom in a Pet Friendly Community!",2669.0,2.0,4745917755,http://sfbay.craigslist.org/search/pen/apa,http://sfbay.craigslist.org/pen/apa/4745917755.html,2014-11-14 14:28,955.0,-122.477024,37.658666
mountain view,Mountain and City Views From Your New Apartment at Carmel The Village!,4485.0,2.0,4761753282,http://sfbay.craigslist.org/search/pen/apa,http://sfbay.craigslist.org/pen/apa/4761753282.html,2014-11-14 14:28,1054.0,-122.112474,37.403040000000004
daly city,Reserve this 2 bedroom 2 bath with washer and dryer! Near Colma BART!,3023.0,2.0,4761734192,http://sfbay.craigslist.org/search/pen/apa,http://sfbay.craigslist.org/pen/apa/4761734192.html,2014-11-14 14:24,1035.0,-122.46338300000001,37.682733
burlingame,Renovated Top Floor Studio! Move in Ready! W/D in home! Location!!!,2122.0,,4761735877,http://sfbay.craigslist.org/search/pen/apa,http://sfbay.craigslist.org/pen/apa/4761735877.html,2014-11-14 14:23,520.0,-122.359378,37.58647
san rafael,Fantastic Live/Work Opportunity in Central SR,2800.0,3.0,4740237507,http://sfbay.craigslist.org/search/nby/apa,http://sfbay.craigslist.org/nby/apa/4740237507.html,2014-11-14 13:18,1400.0,,
petaluma,Live Healthy at Enclave at Adobe Creek ,1451.0,1.0,4761572750,http://sfbay.craigslist.org/search/nby/apa,http://sfbay.craigslist.org/nby/apa/4761572750.html,2014-11-14 13:18,661.0,-122.592316,38.239259000000004
tiburon / belvedere,Happy lives here in our 2 and 3 Bedroom Luxury Apartment Homes!,4499.0,3.0,4761556669,http://sfbay.craigslist.org/search/nby/apa,http://sfbay.craigslist.org/nby/apa/4761556669.html,2014-11-14 13:17,1549.0,-122.528748,37.877634
mill valley,"Spacious, Newly Remodeled",2700.0,2.0,4761644995,http://sfbay.craigslist.org/search/nby/apa,http://sfbay.craigslist.org/nby/apa/4761644995.html,2014-11-14 13:15,1200.0,-122.5339,37.8958
san rafael,Dominican one bedroom,1675.0,1.0,4733997044,http://sfbay.craigslist.org/search/nby/apa,http://sfbay.craigslist.org/nby/apa/4733997044.html,2014-11-14 13:00,550.0,,
san anselmo,Mt. Tam views,1725.0,1.0,4751533820,http://sfbay.craigslist.org/search/nby/apa,http://sfbay.craigslist.org/nby/apa/4751533820.html,2014-11-14 13:00,700.0,,
sausalito,"Location! SF Bay view Balcony, patio/garden/NO SHARED WALLs Cottage ",2300.0,,4752685045,http://sfbay.craigslist.org/search/nby/apa,http://sfbay.craigslist.org/nby/apa/4752685045.html,2014-11-14 12:53,,-122.481766,37.849925
santa rosa,House for Rent,2300.0,4.0,4761601605,http://sfbay.craigslist.org/search/nby/apa,http://sfbay.craigslist.org/nby/apa/4761601605.html,2014-11-14 12:49,,-122.716274,38.397853000000005
tiburon / belvedere,Huge & Spacious Corner Town Home Available Now - Newly Renovated,4650.0,2.0,4761521740,http://sfbay.craigslist.org/search/nby/apa,http://sfbay.craigslist.org/nby/apa/4761521740.html,2014-11-14 12:47,1275.0,-122.499192,37.895069
glen park,Walk to Bart - bright 1bd 1ba inlaw unit w/ garden view,1200.0,1.0,4761715098,http://sfbay.craigslist.org/search/sfc/apa,http://sfbay.craigslist.org/sfc/apa/4761715098.html,2014-11-14 13:57,390.0,,
russian hill,Panoramic Views of the Bay and GG Bridge - ReLISTO,12000.0,2.0,4757329149,http://sfbay.craigslist.org/search/sfc/apa,http://sfbay.craigslist.org/sfc/apa/4757329149.html,2014-11-14 13:56,,-122.421674,37.803138
SOMA / south beach,Loft in Prime SoMa Spot- Parking - Huge - Unique - ReLISTO,3995.0,1.0,4752910904,http://sfbay.craigslist.org/search/sfc/apa,http://sfbay.craigslist.org/sfc/apa/4752910904.html,2014-11-14 13:56,1350.0,-122.39411100000001,37.78614
SOMA / south beach,SoMa Loft - Huge Bright w/Parking - ReLISTO,3995.0,1.0,4752906967,http://sfbay.craigslist.org/search/sfc/apa,http://sfbay.craigslist.org/sfc/apa/4752906967.html,2014-11-14 13:56,1350.0,-122.393918,37.786259
west portal / forest hill,Monterey Heights | 3 Bed 2 Bath Luxury Home | ReLISTO,7295.0,3.0,4726846626,http://sfbay.craigslist.org/search/sfc/apa,http://sfbay.craigslist.org/sfc/apa/4726846626.html,2014-11-14 13:56,4687.0,-122.459975,37.731031
SOMA / south beach,Must See - Sleek/Modern/FullService Bldg. - ReLISTO,6795.0,2.0,4752886665,http://sfbay.craigslist.org/search/sfc/apa,http://sfbay.craigslist.org/sfc/apa/4752886665.html,2014-11-14 13:56,,-122.39145,37.789379
inner sunset / UCSF,"Large, updated fully furnished short term rental in Inner Sunset flat ",3495.0,2.0,4753413703,http://sfbay.craigslist.org/search/sfc/apa,http://sfbay.craigslist.org/sfc/apa/4753413703.html,2014-11-14 13:56,1200.0,-122.469466,37.763098
pittsburg / antioch,Lovely Lone Tree Apartments - One Bedroom Apartment in Great Location!,850.0,1.0,4761822544,http://sfbay.craigslist.org/search/eby/apa,http://sfbay.craigslist.org/eby/apa/4761822544.html,2014-11-14 15:06,500.0,-121.798949,37.97013
concord / pleasant hill / martinez,"Nice Condo on Concord/PH border. A+ Commute Location, Park-like views.",1800.0,2.0,4761802490,http://sfbay.craigslist.org/search/eby/apa,http://sfbay.craigslist.org/eby/apa/4761802490.html,2014-11-14 15:05,900.0,,
fremont / union city / newark,STYLISH INTERIORS IN A GREAT NEIGHBORHOOD!,2499.0,2.0,4761821907,http://sfbay.craigslist.org/search/eby/apa,http://sfbay.craigslist.org/eby/apa/4761821907.html,2014-11-14 15:05,1066.0,-122.04286,37.576801
berkeley,2BR downtown berkeley (LEASE TAKE OVER APT. 437),3260.0,2.0,4753831067,http://sfbay.craigslist.org/search/eby/apa,http://sfbay.craigslist.org/eby/apa/4753831067.html,2014-11-14 15:05,789.0,-122.27018000000001,37.868309
dublin / pleasanton / livermore,Beautiful East Dublin Home - More Homes Available,5300.0,5.0,4761795849,http://sfbay.craigslist.org/search/eby/apa,http://sfbay.craigslist.org/eby/apa/4761795849.html,2014-11-14 15:05,4100.0,-121.85503,37.721713
hayward / castro valley,Comfortable & Cozy In Our Warm and Inviting One Bedroom,1625.0,1.0,4761798161,http://sfbay.craigslist.org/search/eby/apa,http://sfbay.craigslist.org/eby/apa/4761798161.html,2014-11-14 15:03,675.0,-122.091815,37.649833
hayward / castro valley,FOR RENT,1100.0,1.0,4761814362,http://sfbay.craigslist.org/search/eby/apa,http://sfbay.craigslist.org/eby/apa/4761814362.html,2014-11-14 15:00,800.0,-122.03650900000001,37.61703
oakland rockridge / claremont,Great Light HWs Deck Duplex Upper Garage Dual Pane Windows WasherDryer,3950.0,2.0,4761811660,http://sfbay.craigslist.org/search/eby/apa,http://sfbay.craigslist.org/eby/apa/4761811660.html,2014-11-14 14:58,1000.0,-122.25433600000001,37.844935
san jose south,"We have everything you want!! Wood Floors, W/D, and garages! CALL NOW!",2332.0,2.0,4761806662,http://sfbay.craigslist.org/search/sby/apa,http://sfbay.craigslist.org/sby/apa/4761806662.html,2014-11-14 14:55,1061.0,,
san jose south,"Beautiful, gated and affordable",2050.0,2.0,4761806314,http://sfbay.craigslist.org/search/sby/apa,http://sfbay.craigslist.org/sby/apa/4761806314.html,2014-11-14 14:55,888.0,-121.817045,37.305768
saratoga,Amazing 5 Bedroom Home In Saratoga Available Now,7500.0,5.0,4761753860,http://sfbay.craigslist.org/search/sby/apa,http://sfbay.craigslist.org/sby/apa/4761753860.html,2014-11-14 14:52,3462.0,-122.02046999999999,37.252342999999996
milpitas,Looking for storage? The Emerson has what you need and more!,2270.0,2.0,4761789606,http://sfbay.craigslist.org/search/sby/apa,http://sfbay.craigslist.org/sby/apa/4761789606.html,2014-11-14 14:52,940.0,-121.919614,37.454774
willow glen / cambrian,Don't Miss This Pet Friendly Gem,2045.0,1.0,4761761153,http://sfbay.craigslist.org/search/sby/apa,http://sfbay.craigslist.org/sby/apa/4761761153.html,2014-11-14 14:51,780.0,,
santa clara,"2 x 1 apartment, fresh paint & new carpet! Close to parks & caltrain",2095.0,1.0,4761788923,http://sfbay.craigslist.org/search/sby/apa,http://sfbay.craigslist.org/sby/apa/4761788923.html,2014-11-14 14:50,,-121.998603,37.359165999999995
san jose north,Huge Brand New Apts With 5 Acre Park and Next To VTA!,2610.0,1.0,4761775827,http://sfbay.craigslist.org/search/sby/apa,http://sfbay.craigslist.org/sby/apa/4761775827.html,2014-11-14 14:50,832.0,-121.942921,37.401528000000006
san jose south,Ask About Our Immediate Move-in! Large Two Bedroom,1790.0,2.0,4761782793,http://sfbay.craigslist.org/search/sby/apa,http://sfbay.craigslist.org/sby/apa/4761782793.html,2014-11-14 14:49,880.0,-121.817462,37.251543
santa clara,Beyond The Ordinary In This Magnificent Two Bedroom Apt Home,1995.0,2.0,4761697166,http://sfbay.craigslist.org/search/sby/apa,http://sfbay.craigslist.org/sby/apa/4761697166.html,2014-11-14 14:49,845.0,-121.96866899999999,37.355540999999995
redwood city,2bedroom/2 bath Condo,2400.0,2.0,4761755365,http://sfbay.craigslist.org/search/pen/apa,http://sfbay.craigslist.org/pen/apa/4761755365.html,2014-11-14 14:22,,,
palo alto,Charming FULLY FURNISHED one bed room UTILITIES INCLUDED,2695.0,1.0,4751599140,http://sfbay.craigslist.org/search/pen/apa,http://sfbay.craigslist.org/pen/apa/4751599140.html,2014-11-14 14:21,520.0,-122.131748,37.425115999999996
san mateo,Beautiful Luxury Apartments in a Central Location,3400.0,2.0,4742030396,http://sfbay.craigslist.org/search/pen/apa,http://sfbay.craigslist.org/pen/apa/4742030396.html,2014-11-14 14:20,1045.0,-122.30594199999999,37.549960999999996
san mateo,Huge 3 bedroom Apartment,3250.0,3.0,4761751338,http://sfbay.craigslist.org/search/pen/apa,http://sfbay.craigslist.org/pen/apa/4761751338.html,2014-11-14 14:20,1600.0,-122.331424,37.568668
palo alto,Great Studio Available!,2453.0,,4761730632,http://sfbay.craigslist.org/search/pen/apa,http://sfbay.craigslist.org/pen/apa/4761730632.html,2014-11-14 14:19,508.0,,
pacifica,Spacious One Bedroom in a Pet Friendly Community!,2145.0,1.0,4740072700,http://sfbay.craigslist.org/search/pen/apa,http://sfbay.craigslist.org/pen/apa/4740072700.html,2014-11-14 14:16,756.0,-122.47786,37.658938
pacifica,Spacious Two Bedroom with Walk-Out Patio!,3529.0,2.0,4737280612,http://sfbay.craigslist.org/search/pen/apa,http://sfbay.craigslist.org/pen/apa/4737280612.html,2014-11-14 14:16,925.0,-122.49365300000001,37.650665000000004
pacifica,Beautiful Two Bedroom with Amazing Ocean View!,3629.0,2.0,4740205866,http://sfbay.craigslist.org/search/pen/apa,http://sfbay.craigslist.org/pen/apa/4740205866.html,2014-11-14 14:16,925.0,,
santa rosa,Let Us Help You Into a New Home. - Ready For Move-In Now!,1725.0,2.0,4746180959,http://sfbay.craigslist.org/search/nby/apa,http://sfbay.craigslist.org/nby/apa/4746180959.html,2014-11-14 12:43,1068.0,-122.760493,38.512083000000004
santa rosa,"Spacious, Oversized Unit - Let Us Help You Into a New Home.",1725.0,2.0,4745852485,http://sfbay.craigslist.org/search/nby/apa,http://sfbay.craigslist.org/nby/apa/4745852485.html,2014-11-14 12:43,1068.0,-122.760493,38.512083000000004
santa rosa,PRIME RINCON VALLEY AREA ,1815.0,2.0,4752334183,http://sfbay.craigslist.org/search/nby/apa,http://sfbay.craigslist.org/nby/apa/4752334183.html,2014-11-14 12:37,,-122.656603,38.463233
tiburon / belvedere,Looking For a Short Term Lease? 6 Month Option Now Available,4250.0,2.0,4761520976,http://sfbay.craigslist.org/search/nby/apa,http://sfbay.craigslist.org/nby/apa/4761520976.html,2014-11-14 12:35,1075.0,-122.499192,37.895069
corte madera,Located in the Heart of Corte Madera / Georgeous Apartments,4299.0,3.0,4761558591,http://sfbay.craigslist.org/search/nby/apa,http://sfbay.craigslist.org/nby/apa/4761558591.html,2014-11-14 12:33,1533.0,-122.488541,37.919834
santa rosa,"Bright 1 bed, 1 bath, and approximately 720 sqft ",950.0,1.0,4761495786,http://sfbay.craigslist.org/search/nby/apa,http://sfbay.craigslist.org/nby/apa/4761495786.html,2014-11-14 12:32,,,
larkspur,Catch this resort style Townhome! Awesome location waiting for you!,3525.0,2.0,4761543313,http://sfbay.craigslist.org/search/nby/apa,http://sfbay.craigslist.org/nby/apa/4761543313.html,2014-11-14 12:29,,-122.5362,37.9367
noe valley,"TOP QUALITY FLAT! Views,HdwdFlrs,DinRm,WD,FP,Deck,Patio/2yards++ ",4250.0,2.0,4748687048,http://sfbay.craigslist.org/search/sfc/apa,http://sfbay.craigslist.org/sfc/apa/4748687048.html,2014-11-14 13:56,,-122.426748,37.739723
sunset / parkside,"Open House: Sat. 11/15 from 2 to 2:30pm; 3bd/2bth SFR, garage, yard",3995.0,3.0,4761705887,http://sfbay.craigslist.org/search/sfc/apa,http://sfbay.craigslist.org/sfc/apa/4761705887.html,2014-11-14 13:55,1600.0,-122.485456,37.733067
noe valley,"OPEN! QUALITY FLAT! Views,HdwdFlrs,DinRm,WD,FP,Deck,Patio/2yards++ ",4250.0,2.0,4758013613,http://sfbay.craigslist.org/search/sfc/apa,http://sfbay.craigslist.org/sfc/apa/4758013613.html,2014-11-14 13:55,,-122.426748,37.739723
glen park,"TopFlatwBreathtakenViews inSafeNeighborhd nrBART,GoogleShuttleStp,MUNI",3100.0,2.0,4761710364,http://sfbay.craigslist.org/search/sfc/apa,http://sfbay.craigslist.org/sfc/apa/4761710364.html,2014-11-14 13:54,1000.0,-122.43974299999999,37.731584000000005
sunset / parkside,IN LAW STUDIO FOR RENT IN THE SUNSET,1595.0,,4761709046,http://sfbay.craigslist.org/search/sfc/apa,http://sfbay.craigslist.org/sfc/apa/4761709046.html,2014-11-14 13:53,,-122.499784,37.749472
sunset / parkside," Immaculate two bedroom, one and one half bathroom",1600.0,2.0,4761653816,http://sfbay.craigslist.org/search/sfc/apa,http://sfbay.craigslist.org/sfc/apa/4761653816.html,2014-11-14 13:51,1445.0,-122.47986399999999,37.741224
marina / cow hollow, LARGE TOP FLOOR STUDIO APT FOR RENT 1 BLOCK FROM UNION ST /MARINA ,1995.0,,4761705305,http://sfbay.craigslist.org/search/sfc/apa,http://sfbay.craigslist.org/sfc/apa/4761705305.html,2014-11-14 13:51,,-122.42581399999999,37.799276
SOMA / south beach,Open House: Saturday 11/15 from 1 to 1:30pm; 2 bd/2bth condo w/prkg,4100.0,2.0,4761702268,http://sfbay.craigslist.org/search/sfc/apa,http://sfbay.craigslist.org/sfc/apa/4761702268.html,2014-11-14 13:49,1070.0,,
fairfield / vacaville,Live in Luxury in a Huge Apartment with a Gourmet Kitchen!,1076.0,1.0,4761773192,http://sfbay.craigslist.org/search/eby/apa,http://sfbay.craigslist.org/eby/apa/4761773192.html,2014-11-14 14:55,708.0,-121.97423899999998,38.346283
berkeley north / hills,OPEN SUN. AVAIL. DEC 20TH: Private 1 Bedroom in North Berkeley Hills,2195.0,1.0,4761806616,http://sfbay.craigslist.org/search/eby/apa,http://sfbay.craigslist.org/eby/apa/4761806616.html,2014-11-14 14:55,,-122.263927,37.878088
albany / el cerrito,"535 Liberty St., Apartment, El Cerrito $1,695/month",1695.0,1.0,4761786690,http://sfbay.craigslist.org/search/eby/apa,http://sfbay.craigslist.org/eby/apa/4761786690.html,2014-11-14 14:54,,-122.30124099999999,37.904158
oakland lake merritt / grand,~*~@ Beautiful and Comfortable JUNIOR-ONE-BEDROOM FLAT for Rent @~*~ ,1450.0,1.0,4761783814,http://sfbay.craigslist.org/search/eby/apa,http://sfbay.craigslist.org/eby/apa/4761783814.html,2014-11-14 14:53,,-122.237555,37.802537
vallejo / benicia,Gorgeous Remodeled 4BR Benicia Home in Overlook,2950.0,4.0,4761792557,http://sfbay.craigslist.org/search/eby/apa,http://sfbay.craigslist.org/eby/apa/4761792557.html,2014-11-14 14:53,2904.0,-122.148843,38.061918
oakland lake merritt / grand,"262 Vernon St., Apartment, Oakland $1,725/month",1725.0,1.0,4761772497,http://sfbay.craigslist.org/search/eby/apa,http://sfbay.craigslist.org/eby/apa/4761772497.html,2014-11-14 14:52,,-122.25823999999999,37.814624
hayward / castro valley,$300 deposit and we will waive the application fees!,1750.0,1.0,4761765545,http://sfbay.craigslist.org/search/eby/apa,http://sfbay.craigslist.org/eby/apa/4761765545.html,2014-11-14 14:51,668.0,-122.081795,37.679881
dublin / pleasanton / livermore,The LARGEST Closet You Are Going To Find!!,2050.0,1.0,4761765271,http://sfbay.craigslist.org/search/eby/apa,http://sfbay.craigslist.org/eby/apa/4761765271.html,2014-11-14 14:51,796.0,-121.894589,37.69893
san jose downtown,Beautiful Brand New Town Home with 4 B & 3.5 baths ,3400.0,4.0,4761796798,http://sfbay.craigslist.org/search/sby/apa,http://sfbay.craigslist.org/sby/apa/4761796798.html,2014-11-14 14:49,,-121.863965,37.340441
los gatos,OPEN HOUSE TOURS THIS WEEKEND! Vivere- now leasing,2873.0,1.0,4761783947,http://sfbay.craigslist.org/search/sby/apa,http://sfbay.craigslist.org/sby/apa/4761783947.html,2014-11-14 14:48,639.0,-121.97456799999999,37.230544
los gatos,OPEN HOUSE TOURS THIS WEEKEND! Vivere now leasing BRAND NEW Townhomes,3995.0,2.0,4761785029,http://sfbay.craigslist.org/search/sby/apa,http://sfbay.craigslist.org/sby/apa/4761785029.html,2014-11-14 14:47,1182.0,-121.97456799999999,37.230544
sunnyvale,Gorgeous One Bed One Bath In Convenient Location!,2340.0,1.0,4761638227,http://sfbay.craigslist.org/search/sby/apa,http://sfbay.craigslist.org/sby/apa/4761638227.html,2014-11-14 14:45,751.0,-121.996071,37.406240000000004
mountain view,One Bedroom Mountain View,1495.0,1.0,4761788044,http://sfbay.craigslist.org/search/sby/apa,http://sfbay.craigslist.org/sby/apa/4761788044.html,2014-11-14 14:43,976.0,-122.089867,37.386873
san jose south,Come tour today and check out our new and improved Bark Park!! ,2199.0,2.0,4761756602,http://sfbay.craigslist.org/search/sby/apa,http://sfbay.craigslist.org/sby/apa/4761756602.html,2014-11-14 14:43,932.0,-121.873226,37.253833
milpitas,3 bed/ 2 bath AMAZING location!! Move-in ASAP!! Call us today!!,2995.0,3.0,4761768171,http://sfbay.craigslist.org/search/sby/apa,http://sfbay.craigslist.org/sby/apa/4761768171.html,2014-11-14 14:41,1259.0,-121.895,37.4352
Los Altos,"3 Bed + 2 bath, 1800 Square feet New Executive Penthouse in Downtown Los Altos",4995.0,3.0,4761748323,http://sfbay.craigslist.org/search/sby/apa,http://sfbay.craigslist.org/sby/apa/4761748323.html,2014-11-14 14:40,1800.0,-122.116299,37.377251
pacifica,Come Home to a Beautiful Ocean View!,2609.0,,4740115836,http://sfbay.craigslist.org/search/pen/apa,http://sfbay.craigslist.org/pen/apa/4740115836.html,2014-11-14 14:16,590.0,-122.493374,37.650767
mountain view,2442 Thaddeus Drive ,3700.0,4.0,4751529575,http://sfbay.craigslist.org/search/pen/apa,http://sfbay.craigslist.org/pen/apa/4751529575.html,2014-11-14 14:15,1600.0,-122.09743,37.41131
redwood city,Beautifully Remodeled 3 Bedroom Redwood City Townhome,3650.0,3.0,4761736212,http://sfbay.craigslist.org/search/pen/apa,http://sfbay.craigslist.org/pen/apa/4761736212.html,2014-11-14 14:10,1620.0,-122.220327,37.468077
san bruno,APT FOR RENT - 499 Poplar Ave #4,1695.0,1.0,4761719434,http://sfbay.craigslist.org/search/pen/apa,http://sfbay.craigslist.org/pen/apa/4761719434.html,2014-11-14 14:09,,-122.41418300000001,37.622335
belmont,CONVENIENT AND VERY DESIRABLE BELMONT HILLS HOME,4295.0,3.0,4761732662,http://sfbay.craigslist.org/search/pen/apa,http://sfbay.craigslist.org/pen/apa/4761732662.html,2014-11-14 14:08,1600.0,-122.316649,37.512943
mountain view,"Fantastic Location!! Steps to CALTRAIN, ELCAMINO, SAN ANTONIO SHOPS!!",2395.0,2.0,4761681604,http://sfbay.craigslist.org/search/pen/apa,http://sfbay.craigslist.org/pen/apa/4761681604.html,2014-11-14 14:07,700.0,-122.115847,37.404777
larkspur,Top Floor! Cottage style! Close to Ferry & Country Mart! Call today!,2595.0,1.0,4761547753,http://sfbay.craigslist.org/search/nby/apa,http://sfbay.craigslist.org/nby/apa/4761547753.html,2014-11-14 12:25,,-122.5362,37.9367
petaluma,Escape to Your Own Invigorating Haven! Azure at Lakeville Square,2245.0,2.0,4761445828,http://sfbay.craigslist.org/search/nby/apa,http://sfbay.craigslist.org/nby/apa/4761445828.html,2014-11-14 12:25,,-122.60106999999999,38.227663
larkspur,Best location in Marin! Saltwater Pool! Walk to Ferry & Shops!,3595.0,2.0,4761534481,http://sfbay.craigslist.org/search/nby/apa,http://sfbay.craigslist.org/nby/apa/4761534481.html,2014-11-14 12:24,,-122.5362,37.9367
rohnert pk / cotati,"Leave a holding deposit for a great apartment, WIN PRIZES!!!",1750.0,2.0,4739995940,http://sfbay.craigslist.org/search/nby/apa,http://sfbay.craigslist.org/nby/apa/4739995940.html,2014-11-14 12:22,,-122.70849799999999,38.341814
santa rosa,A HIDDEN GEM..... EXCELLENT LOCATION,1705.0,2.0,4742123364,http://sfbay.craigslist.org/search/nby/apa,http://sfbay.craigslist.org/nby/apa/4742123364.html,2014-11-14 12:22,,-122.656775,38.4632
napa county,ST HELENA WOODED HILLSIDE SETTING IN TOWN,4250.0,3.0,4761502631,http://sfbay.craigslist.org/search/nby/apa,http://sfbay.craigslist.org/nby/apa/4761502631.html,2014-11-14 12:14,2800.0,-122.481408,38.492675
larkspur,Terrific Park View! Lots of storage! Walk to Ferry & Country Mart!,3495.0,2.0,4761499315,http://sfbay.craigslist.org/search/nby/apa,http://sfbay.craigslist.org/nby/apa/4761499315.html,2014-11-14 12:01,,-122.5362,37.9367
san rafael,Month to Month No Lease,2175.0,2.0,4757110560,http://sfbay.craigslist.org/search/nby/apa,http://sfbay.craigslist.org/nby/apa/4757110560.html,2014-11-14 12:00,1200.0,-122.54991100000001,38.007684000000005
nob hill,Live in the Heart of Nob Hill! Updated 1BR w/ Gorgeous Kitchen!,2495.0,1.0,4747486223,http://sfbay.craigslist.org/search/sfc/apa,http://sfbay.craigslist.org/sfc/apa/4747486223.html,2014-11-14 13:48,,-122.41983400000001,37.795253
sunset / parkside,Look for Short Term Rental,1000.0,1.0,4761699121,http://sfbay.craigslist.org/search/sfc/apa,http://sfbay.craigslist.org/sfc/apa/4761699121.html,2014-11-14 13:47,,-122.4836,37.7593
potrero hill,Stunning views from our rooftop! Rent this 1 bed / 1 bath today!,3475.0,1.0,4761689630,http://sfbay.craigslist.org/search/sfc/apa,http://sfbay.craigslist.org/sfc/apa/4761689630.html,2014-11-14 13:41,,-122.38864,37.761324
richmond / seacliff,Spectacular Single Family Home-Rentals In SF,6995.0,4.0,4756921805,http://sfbay.craigslist.org/search/sfc/apa,http://sfbay.craigslist.org/sfc/apa/4756921805.html,2014-11-14 13:41,,-122.489898,37.7772
castro / upper market,"Sunny Furnished Studio, Eat-in Kitchen,Walk-in Closet, Deck View, Utl",2395.0,,4752082957,http://sfbay.craigslist.org/search/sfc/apa,http://sfbay.craigslist.org/sfc/apa/4752082957.html,2014-11-14 13:41,420.0,-122.43685500000001,37.769663
bernal heights,TOP FLOOR BERNAL CHARMER! 1 BED 1 BATH FLAT *by AMSI,2845.0,,4719756493,http://sfbay.craigslist.org/search/sfc/apa,http://sfbay.craigslist.org/sfc/apa/4719756493.html,2014-11-14 13:40,,-122.413532,37.746766
russian hill,FURNISHED SHORT TERM OK! VIEW CONDO DAWN CUSULOS *by AMSI,11999.0,3.0,4748379308,http://sfbay.craigslist.org/search/sfc/apa,http://sfbay.craigslist.org/sfc/apa/4748379308.html,2014-11-14 13:40,,-122.41758700000001,37.800340999999996
SOMA / south beach,WEEKEND SPECIAL! The Fully Furnished Apartment You've Been Looking For,2599.0,1.0,4761602992,http://sfbay.craigslist.org/search/sfc/apa,http://sfbay.craigslist.org/sfc/apa/4761602992.html,2014-11-14 13:38,,-122.413003,37.77758
lower haight,"Victorian Flat with Garden/Patio - CHILDREN, DOGS WELCOME!",3995.0,2.0,4761651342,http://sfbay.craigslist.org/search/sfc/apa,http://sfbay.craigslist.org/sfc/apa/4761651342.html,2014-11-14 13:38,,-122.439089,37.772921999999994
walnut creek,Fantastic 3BR Water View Home on Benicia's Westside,3000.0,3.0,4751233365,http://sfbay.craigslist.org/search/eby/apa,http://sfbay.craigslist.org/eby/apa/4751233365.html,2014-11-14 14:51,2053.0,-122.179685,38.065409
Concord,THIS IS A LARGE HOME FOR THE PRICE IN A GREAT AREA,1435.0,4.0,4761677822,http://sfbay.craigslist.org/search/eby/apa,http://sfbay.craigslist.org/eby/apa/4761677822.html,2014-11-14 14:50,,,
fairfield / vacaville,AWARD WINNING COMMUNITY NESTLED IN THE BEAUTIFUL SOLANO FOOTHILLS,1298.0,1.0,4761765732,http://sfbay.craigslist.org/search/eby/apa,http://sfbay.craigslist.org/eby/apa/4761765732.html,2014-11-14 14:50,,-122.052869,38.277381
fremont / union city / newark,Union City 'Mission Village' condo,1600.0,2.0,4761796842,http://sfbay.craigslist.org/search/eby/apa,http://sfbay.craigslist.org/eby/apa/4761796842.html,2014-11-14 14:49,710.0,-122.004504,37.593806
dublin / pleasanton / livermore,Brand New Luxury Townhouse Next to Dublin BART station,3300.0,4.0,4746187188,http://sfbay.craigslist.org/search/eby/apa,http://sfbay.craigslist.org/eby/apa/4746187188.html,2014-11-14 14:48,1848.0,-121.897173,37.704501
oakland lake merritt / grand,"Manager's unit avail, Pvt balcony, Dishwasher, Hardwood, Near BART",1750.0,1.0,4761780958,http://sfbay.craigslist.org/search/eby/apa,http://sfbay.craigslist.org/eby/apa/4761780958.html,2014-11-14 14:48,600.0,-122.265102,37.803453999999995
walnut creek,"Diablo View - Beautifully Upgraded Two Bed, One Bath!",1595.0,2.0,4761768935,http://sfbay.craigslist.org/search/eby/apa,http://sfbay.craigslist.org/eby/apa/4761768935.html,2014-11-14 14:48,650.0,-122.074625,37.894709999999996
fairfield / vacaville,Move-In Ready - Awesome 3/2,1390.0,3.0,4761606522,http://sfbay.craigslist.org/search/eby/apa,http://sfbay.craigslist.org/eby/apa/4761606522.html,2014-11-14 14:47,1773.0,,
cupertino,RENT THIS 1BR/1BA APT W/ DUAL PANE WINDOWS TODAY!,2095.0,1.0,4761687983,http://sfbay.craigslist.org/search/sby/apa,http://sfbay.craigslist.org/sby/apa/4761687983.html,2014-11-14 14:39,600.0,-122.046971,37.324342
morgan hill,Available Now! Great Home in Desirable Neighborhood!,3000.0,4.0,4761721299,http://sfbay.craigslist.org/search/sby/apa,http://sfbay.craigslist.org/sby/apa/4761721299.html,2014-11-14 14:38,1887.0,-121.66216899999999,37.120651
santa clara,"Beautiful, Newly Remodeled 1 Bedroom Duplex Available Now!",2000.0,1.0,4755153927,http://sfbay.craigslist.org/search/sby/apa,http://sfbay.craigslist.org/sby/apa/4755153927.html,2014-11-14 14:36,,,
sunnyvale,LUSH LANDSCAPING & RESORT POOLS IN PRIME LOCATION,2389.0,2.0,4761774746,http://sfbay.craigslist.org/search/sby/apa,http://sfbay.craigslist.org/sby/apa/4761774746.html,2014-11-14 14:34,,-122.050428,37.359338
san jose south,"Newly Remodeled 2 Bedroom, 1 Bath Apartment Available Now!",2000.0,2.0,4761729139,http://sfbay.craigslist.org/search/sby/apa,http://sfbay.craigslist.org/sby/apa/4761729139.html,2014-11-14 14:34,900.0,,
san jose downtown,"2 1BR Apts for lease, 460 N 1st St SJ Open House Saturday 11/15 12-2pm",1450.0,1.0,4761773236,http://sfbay.craigslist.org/search/sby/apa,http://sfbay.craigslist.org/sby/apa/4761773236.html,2014-11-14 14:33,525.0,-121.89605700000001,37.34384
daly city," INLAW- 1 Bedroom,1 Dining/kitchen Room,1 Bath ",1400.0,1.0,4750938015,http://sfbay.craigslist.org/search/pen/apa,http://sfbay.craigslist.org/pen/apa/4750938015.html,2014-11-14 14:06,,-122.486484,37.676233
coastside/pescadero,3 bed 2 bath El Granada rental,3500.0,3.0,4761699332,http://sfbay.craigslist.org/search/pen/apa,http://sfbay.craigslist.org/pen/apa/4761699332.html,2014-11-14 14:02,1600.0,,
palo alto,"Trendy, charming completely remodeled apt in old Palo Alto with yard",3495.0,2.0,4761695042,http://sfbay.craigslist.org/search/pen/apa,http://sfbay.craigslist.org/pen/apa/4761695042.html,2014-11-14 13:58,752.0,-122.14850700000001,37.433873999999996
south san francisco,EXPANSIVE BALCONIES OVERLOOKING GORGEOUS GARDENS & RESORT POOL,2566.0,2.0,4761714494,http://sfbay.craigslist.org/search/pen/apa,http://sfbay.craigslist.org/pen/apa/4761714494.html,2014-11-14 13:56,860.0,-122.436173,37.65313
san mateo,Studio near Downtown San Mateo,2000.0,,4757582384,http://sfbay.craigslist.org/search/pen/apa,http://sfbay.craigslist.org/pen/apa/4757582384.html,2014-11-14 13:53,700.0,-122.329297,37.561607
mountain view,Remarkable spacious 2x2 Available Now!,2783.0,2.0,4761708342,http://sfbay.craigslist.org/search/pen/apa,http://sfbay.craigslist.org/pen/apa/4761708342.html,2014-11-14 13:53,1060.0,-122.101303,37.396907
san bruno,A Retreat You Can Call Home! Great Community! Great Location!,3237.0,,4761693753,http://sfbay.craigslist.org/search/pen/apa,http://sfbay.craigslist.org/pen/apa/4761693753.html,2014-11-14 13:51,1079.0,-122.429,37.6247
daly city,San Francisco & Daly City Border,2450.0,3.0,4761676700,http://sfbay.craigslist.org/search/pen/apa,http://sfbay.craigslist.org/pen/apa/4761676700.html,2014-11-14 13:48,1050.0,-122.448753,37.707667
larkspur,** CHARMING REMODELED 2BD/2BA NEAR HISTORIC DOWNTOWN **,3050.0,2.0,4761482690,http://sfbay.craigslist.org/search/nby/apa,http://sfbay.craigslist.org/nby/apa/4761482690.html,2014-11-14 11:58,1000.0,,
healdsburg / windsor,Lovely Single Story Home,2775.0,,4761445071,http://sfbay.craigslist.org/search/nby/apa,http://sfbay.craigslist.org/nby/apa/4761445071.html,2014-11-14 11:55,,-122.82236599999999,38.552051
san anselmo,Tree house in San Anselmo ,3200.0,2.0,4748176230,http://sfbay.craigslist.org/search/nby/apa,http://sfbay.craigslist.org/nby/apa/4748176230.html,2014-11-14 11:55,1250.0,-122.580906,37.980501000000004
napa county,Some Utilities Included! 1B/1B Townhome Available For Rent! ,1275.0,1.0,4761494488,http://sfbay.craigslist.org/search/nby/apa,http://sfbay.craigslist.org/nby/apa/4761494488.html,2014-11-14 11:55,690.0,-122.30246499999998,38.314858
lake county,Lakeport Solar Home for Rent,1200.0,3.0,4761502331,http://sfbay.craigslist.org/search/nby/apa,http://sfbay.craigslist.org/nby/apa/4761502331.html,2014-11-14 11:53,1640.0,,
napa county,2ba Luxury Apartment - Finest Location in Napa,1795.0,2.0,4761485128,http://sfbay.craigslist.org/search/nby/apa,http://sfbay.craigslist.org/nby/apa/4761485128.html,2014-11-14 11:51,942.0,-122.30186499999999,38.304402
petaluma,Don't wait! These spacious apartment homes are going fast!,2606.0,2.0,4761462138,http://sfbay.craigslist.org/search/nby/apa,http://sfbay.craigslist.org/nby/apa/4761462138.html,2014-11-14 11:40,1263.0,-122.637496,38.233515999999995
napa county,Napa*Huge*5 Bed*loft*$3495 a month,3495.0,5.0,4758223362,http://sfbay.craigslist.org/search/nby/apa,http://sfbay.craigslist.org/nby/apa/4758223362.html,2014-11-14 11:34,3500.0,-122.26968400000001,38.290821
marina / cow hollow,"Large, Center of Marina, Quiet",3150.0,1.0,4761681015,http://sfbay.craigslist.org/search/sfc/apa,http://sfbay.craigslist.org/sfc/apa/4761681015.html,2014-11-14 13:36,900.0,-122.439945,37.803274
potrero hill,Top Floor Light Filled Condo in Dogpatch,3700.0,1.0,4752936162,http://sfbay.craigslist.org/search/sfc/apa,http://sfbay.craigslist.org/sfc/apa/4752936162.html,2014-11-14 13:35,768.0,-122.38906899999999,37.763421
USF / panhandle,"Victorian flat, great neighbors. PETS WELCOME! avail 12/1/14",3200.0,1.0,4757430328,http://sfbay.craigslist.org/search/sfc/apa,http://sfbay.craigslist.org/sfc/apa/4757430328.html,2014-11-14 13:34,,,
glen park,The Heart of Glen Park/Fully Furnished,5800.0,3.0,4761675696,http://sfbay.craigslist.org/search/sfc/apa,http://sfbay.craigslist.org/sfc/apa/4761675696.html,2014-11-14 13:33,,,
lower nob hill,Charming Studio,2150.0,,4761642985,http://sfbay.craigslist.org/search/sfc/apa,http://sfbay.craigslist.org/sfc/apa/4761642985.html,2014-11-14 13:31,,-122.41922199999999,37.791703999999996
hayes valley,LIKE NEW 1 bedroom w/ parking -SF apartment ,2995.0,1.0,4717293537,http://sfbay.craigslist.org/search/sfc/apa,http://sfbay.craigslist.org/sfc/apa/4717293537.html,2014-11-14 13:27,,-122.434578,37.773491
inner richmond,"GORGEOUS, MUST SEE BEAUTIFUL 1 BED/1 BATH NEAR USF!!!",2850.0,1.0,4761662882,http://sfbay.craigslist.org/search/sfc/apa,http://sfbay.craigslist.org/sfc/apa/4761662882.html,2014-11-14 13:25,,-122.457733,37.77543
fremont / union city / newark,"LUSH GARDENS, POOL, SAUNA, FITNESS CENTER AND BRIGHT TWO BEDROOM",2249.0,2.0,4761779403,http://sfbay.craigslist.org/search/eby/apa,http://sfbay.craigslist.org/eby/apa/4761779403.html,2014-11-14 14:45,886.0,-122.04286,37.576801
Livermore,THIS IS A LARGE HOME FOR THE PRICE IN A GREAT AREA,2115.0,4.0,4761680564,http://sfbay.craigslist.org/search/eby/apa,http://sfbay.craigslist.org/eby/apa/4761680564.html,2014-11-14 14:45,,,
oakland lake merritt / grand,"BEAUTIFUL LANDMARK 1920'S BLDG, HARDWOODS, SUNNY, WALK TO THE LAKE!",1350.0,,4740603448,http://sfbay.craigslist.org/search/eby/apa,http://sfbay.craigslist.org/eby/apa/4740603448.html,2014-11-14 14:45,,-122.245121,37.800835
berkeley north / hills,Beautiful and Spacious Kensington House,2195.0,1.0,4761772037,http://sfbay.craigslist.org/search/eby/apa,http://sfbay.craigslist.org/eby/apa/4761772037.html,2014-11-14 14:45,918.0,-122.287273,37.899104
oakland hills / mills,"OAKLAND HILLS, CONDO STYLE DUPLEX, BALCONY, WALK TO MILLS COLLEGE!",1995.0,3.0,4751211631,http://sfbay.craigslist.org/search/eby/apa,http://sfbay.craigslist.org/eby/apa/4751211631.html,2014-11-14 14:44,,-122.17893600000001,37.779046
brentwood / oakley,3br 2ba sfr Available Now!,1510.0,3.0,4761642047,http://sfbay.craigslist.org/search/eby/apa,http://sfbay.craigslist.org/eby/apa/4761642047.html,2014-11-14 14:44,1764.0,,
fremont / union city / newark,Our Most Popular Floor Plan Coming Soon!,2102.0,2.0,4761760512,http://sfbay.craigslist.org/search/eby/apa,http://sfbay.craigslist.org/eby/apa/4761760512.html,2014-11-14 14:43,800.0,-122.02085500000001,37.590447999999995
campbell,"Newly Renovated Two Bedroom With Walk-in Closet, ",2450.0,2.0,4761755736,http://sfbay.craigslist.org/search/sby/apa,http://sfbay.craigslist.org/sby/apa/4761755736.html,2014-11-14 14:32,1000.0,-121.946201,37.260289
santa clara,"$99 Deposits, No App Fees & Petes Coffee when you tour at Timberleaf!",2538.0,2.0,4761769238,http://sfbay.craigslist.org/search/sby/apa,http://sfbay.craigslist.org/sby/apa/4761769238.html,2014-11-14 14:31,1000.0,-121.94053000000001,37.337745
gilroy,3 Bed 2 Bathroom House for rent ,2250.0,3.0,4719389011,http://sfbay.craigslist.org/search/sby/apa,http://sfbay.craigslist.org/sby/apa/4719389011.html,2014-11-14 14:28,1486.0,-121.57036200000002,37.01782
gilroy,4 Bed 2.5 Bath 1926 sqft. Home in Gilroy for Rent,2800.0,4.0,4750851536,http://sfbay.craigslist.org/search/sby/apa,http://sfbay.craigslist.org/sby/apa/4750851536.html,2014-11-14 14:28,1926.0,-121.5773,37.0139
