neighborhood,title,price,bedrooms,pid,sourcepage,link,date,sqft,longitude,latitude
"Washington, DC",Cozy 2 Bedroom Home! You Will Absolutely Fall In Love!!,2766.0,2.0,4761904295,http://washingtondc.craigslist.org/search/apa?s=100,http://washingtondc.craigslist.org/doc/apa/4761904295.html,2014-11-14 19:13,1023.0,-77.07244399999999,38.933859999999996
MCLEAN,MCLEAN 3BR 2BA LUXURY CONDO,2495.0,2.0,4761899333,http://washingtondc.craigslist.org/search/apa?s=100,http://washingtondc.craigslist.org/nva/apa/4761899333.html,2014-11-14 19:12,1500.0,-77.177711,38.939491
Prince William County,Come see the many advantages to buying-V-renting,1665.0,5.0,4751198939,http://washingtondc.craigslist.org/search/apa?s=100,http://washingtondc.craigslist.org/nva/apa/4751198939.html,2014-11-14 19:12,,,
Georgetown/Dopont Circle,Architect designed Spacious 1 BDR+Den,2300.0,1.0,4761912661,http://washingtondc.craigslist.org/search/apa?s=100,http://washingtondc.craigslist.org/doc/apa/4761912661.html,2014-11-14 19:12,750.0,-77.052429,38.910619
Arlington/Rosslyn,Furnished studio/bills pd/WIFI/metro,1400.0,,4744874950,http://washingtondc.craigslist.org/search/apa?s=100,http://washingtondc.craigslist.org/doc/apa/4744874950.html,2014-11-14 19:12,,-77.07068000000001,38.893146
AU Park,Charming 3bd/2 1/2ba home for rent ,3800.0,3.0,4745596105,http://washingtondc.craigslist.org/search/apa?s=100,http://washingtondc.craigslist.org/doc/apa/4745596105.html,2014-11-14 19:11,1856.0,-77.086,38.9381
Fairfax Station,Spacious Suite for Single Occupancy ,1000.0,1.0,4735234277,http://washingtondc.craigslist.org/search/apa?s=100,http://washingtondc.craigslist.org/nva/apa/4735234277.html,2014-11-14 19:11,,-77.3064,38.7602
rockville,A Retreat You Can Call Home! Great Community! Great Location!,1466.0,2.0,4761753512,http://washingtondc.craigslist.org/search/apa?s=100,http://washingtondc.craigslist.org/mld/apa/4761753512.html,2014-11-14 19:11,728.0,,
,"Wonderful House to rent in Capitol Hill/H Street/Trinidad area, 2950$",2950.0,3.0,4761974909,http://washingtondc.craigslist.org/search/apa,http://washingtondc.craigslist.org/doc/apa/4761974909.html,2014-11-14 20:08,,,
"Potomac Falls/Sterling, VA 20165",2 Car Garage Townhouse for Rent,2295.0,3.0,4761980226,http://washingtondc.craigslist.org/search/apa,http://washingtondc.craigslist.org/nva/apa/4761980226.html,2014-11-14 20:08,2700.0,,
CHERRYDALE,LARGE 2 BEDROOM/1 BATH CHERRYDALE LUXURY GARDEN APT-(AVAIL. DECEMBER),2500.0,2.0,4761966741,http://washingtondc.craigslist.org/search/apa,http://washingtondc.craigslist.org/nva/apa/4761966741.html,2014-11-14 20:07,1100.0,-77.11195699999999,38.89792
"n.potomac, Darnestown rd",◆◆◆4Rent Townhouse near Kentland◆◆◆◆,1900.0,3.0,4748635601,http://washingtondc.craigslist.org/search/apa,http://washingtondc.craigslist.org/mld/apa/4748635601.html,2014-11-14 20:07,1500.0,-77.247795,39.11483
"Fairfax, Falls Church, Tysons Corner, Mclean","MCLEAN, TYSONS APT AVAILABLE OFFERING $1200 IF YOU RENT OUR APT ",2295.0,2.0,4744202620,http://washingtondc.craigslist.org/search/apa,http://washingtondc.craigslist.org/nva/apa/4744202620.html,2014-11-14 20:07,1063.0,-77.22879300000001,38.872274
"Falls Church, Merrifield, Tysons Corner, Mclean, Fairfax",MOSAIC/MERRIFIELD *** UPTO $1500 CASH BONUS IF YOU RENT OUR UNIT*** ,2295.0,2.0,4728248031,http://washingtondc.craigslist.org/search/apa,http://washingtondc.craigslist.org/nva/apa/4728248031.html,2014-11-14 20:06,1063.0,-77.22879300000001,38.872274
Lake Ridge,Detached Home,1699.0,3.0,4746040422,http://washingtondc.craigslist.org/search/apa,http://washingtondc.craigslist.org/nva/apa/4746040422.html,2014-11-14 20:06,1400.0,-77.28315400000001,38.675895000000004
3446 Connecticut Ave Cleveland Park,"EJF - 3446 Connecticut Ave NW #102 - Cleveland Park 2BR 1BA, Pets OK",2495.0,2.0,4758850927,http://washingtondc.craigslist.org/search/apa,http://washingtondc.craigslist.org/doc/apa/4758850927.html,2014-11-14 20:05,700.0,-77.058642,38.935361
Clarendon,Largest Three Bedroom Apt. Available! Lease Today-Do Not Wait! SAT 11-3,4150.0,3.0,4761976907,http://washingtondc.craigslist.org/search/apa,http://washingtondc.craigslist.org/nva/apa/4761976907.html,2014-11-14 20:05,1671.0,-77.094864,38.883419
Alexandria/Fairfax,Take $500 off one month's rent for Beautiful 1BR in time for holidays!,1335.0,1.0,4761831160,http://washingtondc.craigslist.org/search/apa?s=100,http://washingtondc.craigslist.org/nva/apa/4761831160.html,2014-11-14 19:10,640.0,,
"Cathedral Ave, NW",Fully furnish or unfurnished- Move in ASAP!! near American Univ,2045.0,1.0,4761910576,http://washingtondc.craigslist.org/search/apa?s=100,http://washingtondc.craigslist.org/doc/apa/4761910576.html,2014-11-14 19:10,800.0,-77.07310600000001,38.929024
woodbridge,RENT TO OWN A HOME IN WOODBRIDGE***ALL CREDIT CONSIDERED***,1900.0,3.0,4758588811,http://washingtondc.craigslist.org/search/apa?s=100,http://washingtondc.craigslist.org/nva/apa/4758588811.html,2014-11-14 19:10,,-77.3451,38.6438
woodbridge,"AVAILABLE NOW-RENT, RENT TO OWN....CALL US!",2100.0,3.0,4758678359,http://washingtondc.craigslist.org/search/apa?s=100,http://washingtondc.craigslist.org/nva/apa/4758678359.html,2014-11-14 19:10,,-77.2683,38.6356
Waterfront metro stop - DC,Waterview 1 Bedroom/Utilities & Assigned Indoor Parking Included,1900.0,1.0,4761889269,http://washingtondc.craigslist.org/search/apa?s=100,http://washingtondc.craigslist.org/doc/apa/4761889269.html,2014-11-14 19:08,717.0,-77.019385,38.872793
Merrill House Apartments,Spacious One Bedrooms Available in Falls Church City!,1289.0,1.0,4761823765,http://washingtondc.craigslist.org/search/apa?s=100,http://washingtondc.craigslist.org/nva/apa/4761823765.html,2014-11-14 19:08,765.0,-77.16974499999999,38.880336
DUMFRIES,RENTAL OPEN HOUSE 11/15/14*ALL APP CONSIDERED*HOLIDAY SPECIAL-STOP BY,2000.0,4.0,4747869684,http://washingtondc.craigslist.org/search/apa?s=100,http://washingtondc.craigslist.org/nva/apa/4747869684.html,2014-11-14 19:08,,-77.3229,38.5509
DUMFRIES,RENTAL OPEN HOUSE 11/15/14*ALL APP CONSIDERED*HOLIDAY SPECIAL-STOP BY,2000.0,4.0,4729039037,http://washingtondc.craigslist.org/search/apa?s=100,http://washingtondc.craigslist.org/nva/apa/4729039037.html,2014-11-14 19:08,,-77.308142,38.568533
WOODBRIDGE - NOVA Community College ,FULLY FURNISHED BASEMENT WITH FULL BATH *utilities included* Available,750.0,1.0,4761976761,http://washingtondc.craigslist.org/search/apa,http://washingtondc.craigslist.org/nva/apa/4761976761.html,2014-11-14 20:04,,-77.2683,38.6356
"Arlington, VA",A Cozy Apartment Home at Liberty Towers Just For You!,1705.0,1.0,4761957993,http://washingtondc.craigslist.org/search/apa,http://washingtondc.craigslist.org/nva/apa/4761957993.html,2014-11-14 20:04,626.0,-77.107495,38.879874
724 F Street NE,Capitol Hill Townhouse ,2600.0,3.0,4761972311,http://washingtondc.craigslist.org/search/apa,http://washingtondc.craigslist.org/doc/apa/4761972311.html,2014-11-14 20:00,1750.0,-76.995875,38.897333
"1218 Eastern Ave., North East, Washington DC",1218 Eastern Avenue **FREE UTILITY TWO BEDROOM** Deanwood Metro,1018.0,2.0,4761959139,http://washingtondc.craigslist.org/search/apa,http://washingtondc.craigslist.org/doc/apa/4761959139.html,2014-11-14 20:00,,-76.926834,38.906534
BETHESDA,"BEAUTIFUL 1BR, 1DEN, 1 BATH APT. IN HOUSE. WALKING DISTANCE TO NIH.",1650.0,2.0,4761972115,http://washingtondc.craigslist.org/search/apa,http://washingtondc.craigslist.org/mld/apa/4761972115.html,2014-11-14 20:00,1200.0,-77.0793,39.0298
Alexandria VA,Move-in Ready Beautiful Home by Van Dorn Metro Station/Kingstowne Area,3775.0,5.0,4751113083,http://washingtondc.craigslist.org/search/apa,http://washingtondc.craigslist.org/nva/apa/4751113083.html,2014-11-14 20:00,4800.0,-77.1194,38.7794
Alexandria,"Colonial-Style Apartments, Wood Flooring, Microwave and More",1009.0,1.0,4761938071,http://washingtondc.craigslist.org/search/apa,http://washingtondc.craigslist.org/nva/apa/4761938071.html,2014-11-14 20:00,460.0,-77.10902800000001,38.814894
Alexandria,Alexandria Rental,2050.0,4.0,4746577049,http://washingtondc.craigslist.org/search/apa,http://washingtondc.craigslist.org/nva/apa/4746577049.html,2014-11-14 19:59,,,
paw paw WV,Farm for Rent 22 acres,850.0,3.0,4761970127,http://washingtondc.craigslist.org/search/apa,http://washingtondc.craigslist.org/mld/apa/4761970127.html,2014-11-14 19:59,1500.0,-78.4586,39.4923
Kingstowne,A Great Apartments Community,1699.0,1.0,4761741306,http://washingtondc.craigslist.org/search/apa?s=400,http://washingtondc.craigslist.org/nva/apa/4761741306.html,2014-11-14 18:01,788.0,-77.1485,38.7596
,3br 1 ba condo walking distance to union station,1900.0,3.0,4753143139,http://washingtondc.craigslist.org/search/apa?s=400,http://washingtondc.craigslist.org/mld/apa/4753143139.html,2014-11-14 18:01,,-76.999431,38.906706
"Alexadnria, VA",Luxury Apartment Community 15 minutes from Downtown DC!!!,1973.0,2.0,4761800498,http://washingtondc.craigslist.org/search/apa?s=400,http://washingtondc.craigslist.org/nva/apa/4761800498.html,2014-11-14 18:01,1280.0,-77.0896,38.8276
Washington 20009,Hurry Up!!! Spectacular Deal,1500.0,,4755222713,http://washingtondc.craigslist.org/search/apa?s=400,http://washingtondc.craigslist.org/doc/apa/4755222713.html,2014-11-14 18:01,,,
DUPONT CIRCLE NEAR EVERYTHING,AMAZING DEALS! THIS WEEKEND ONLY! $1500 IN SAVINGS!,1810.0,,4761814659,http://washingtondc.craigslist.org/search/apa?s=400,http://washingtondc.craigslist.org/doc/apa/4761814659.html,2014-11-14 18:00,475.0,-77.04489000000001,38.907244
Downtown Bethesda,"NEAR BETHESDA METRO- 1 bedroom condo, 1 full bath ",1900.0,1.0,4761814666,http://washingtondc.craigslist.org/search/apa?s=400,http://washingtondc.craigslist.org/mld/apa/4761814666.html,2014-11-14 18:00,727.0,-77.09409000000001,38.980379
Foggy Bottom,"Great Apartment, Wood floor, Granite",2400.0,1.0,4749206197,http://washingtondc.craigslist.org/search/apa?s=400,http://washingtondc.craigslist.org/doc/apa/4749206197.html,2014-11-14 18:00,600.0,-77.0504,38.9014
Marginella Dr.,SinGle Family HOUSE @Reston 5 BedRooMs ,2500.0,5.0,4761772637,http://washingtondc.craigslist.org/search/apa?s=400,http://washingtondc.craigslist.org/nva/apa/4761772637.html,2014-11-14 18:00,,-77.3527,38.9318
"ROCKVILLE, MD - WASHINGTON, DC",WEEKLY - FURNISHED - WALK TO METRO - INTERNET - CABLE - WASHER / DRYER,450.0,1.0,4747114256,http://washingtondc.craigslist.org/search/apa?s=300,http://washingtondc.craigslist.org/mld/apa/4747114256.html,2014-11-14 18:16,,-77.145843,39.081565000000005
Herndon,"$1880 + 2 Months Free! Pets, Gym, Pool, Business Center. Gate Access!",1880.0,2.0,4761780025,http://washingtondc.craigslist.org/search/apa?s=300,http://washingtondc.craigslist.org/nva/apa/4761780025.html,2014-11-14 18:16,1289.0,-77.3928,38.9252
Leesburg,Temperatures Falling....Fall Into The Point @ Leesburg! Visit Today,1334.0,2.0,4761765721,http://washingtondc.craigslist.org/search/apa?s=300,http://washingtondc.craigslist.org/nva/apa/4761765721.html,2014-11-14 18:16,900.0,-77.541036,39.110865999999994
Washington DC,************** $975 AIR CONDITIONED TWO BEDROOM $975 **************,975.0,2.0,4761793884,http://washingtondc.craigslist.org/search/apa?s=300,http://washingtondc.craigslist.org/doc/apa/4761793884.html,2014-11-14 18:16,,,
"7509 Mandan Road, Suite 104 ",Amazing 3BR. at an Award Winning Community! Great Special!,1936.0,3.0,4761754511,http://washingtondc.craigslist.org/search/apa?s=300,http://washingtondc.craigslist.org/mld/apa/4761754511.html,2014-11-14 18:15,1430.0,-76.864358,38.991606
"Dupont Circle, DC",Amazing Studio available in December,1850.0,,4761830988,http://washingtondc.craigslist.org/search/apa?s=300,http://washingtondc.craigslist.org/doc/apa/4761830988.html,2014-11-14 18:15,460.0,-77.046998,38.905853
alexandria va,"Magnificent Deal Hurry, This Week Only",1450.0,1.0,4761807915,http://washingtondc.craigslist.org/search/apa?s=300,http://washingtondc.craigslist.org/nva/apa/4761807915.html,2014-11-14 18:15,800.0,,
Arlington,"Elegant, Den, Free Parking for 1 Year, No Move-in Fee",4060.0,2.0,4761868683,http://washingtondc.craigslist.org/search/apa?s=200,http://washingtondc.craigslist.org/nva/apa/4761868683.html,2014-11-14 18:38,1537.0,-77.07867399999999,38.887214
U Street Corridor,"Pets Welcome! Brand New 1BR, with NEST, Stainless, and Hardwood Floor",2440.0,1.0,4761861538,http://washingtondc.craigslist.org/search/apa?s=200,http://washingtondc.craigslist.org/doc/apa/4761861538.html,2014-11-14 18:38,,-77.0375,38.9202
935 N Van Dorn,3 BR starting at $1545 with a Month FREE!,1545.0,3.0,4761850196,http://washingtondc.craigslist.org/search/apa?s=200,http://washingtondc.craigslist.org/nva/apa/4761850196.html,2014-11-14 18:38,1350.0,,
Chevy Chase,1 Bedroom and Den Available Early December!,2580.0,1.0,4761796819,http://washingtondc.craigslist.org/search/apa?s=200,http://washingtondc.craigslist.org/nva/apa/4761796819.html,2014-11-14 18:38,853.0,-77.087463,38.961872
rockville,Newly renovated beautiful 3BR TH excellent Wootton school cluster ,2200.0,3.0,4754608866,http://washingtondc.craigslist.org/search/apa?s=200,http://washingtondc.craigslist.org/mld/apa/4754608866.html,2014-11-14 18:37,1422.0,-77.211831,39.093244
Dumfries Quantico Woodbridge Ft Belvoir,"Virginia Commons Affordable Luxury 1,2&3 Bedroom Apts",1150.0,,4753216819,http://washingtondc.craigslist.org/search/apa?s=200,http://washingtondc.craigslist.org/nva/apa/4753216819.html,2014-11-14 18:37,,-77.31203599999999,38.584505
N Frederick Rd & Christopher Ave,Each apartment features a washer/dryer and private patio/balcony!,1362.0,2.0,4761841402,http://washingtondc.craigslist.org/search/apa?s=200,http://washingtondc.craigslist.org/mld/apa/4761841402.html,2014-11-14 18:36,904.0,-77.2122,39.1587
"Oxon Hill / Temple Hills, MD",LARGE FURNISHED BASEMENT! READY NOW!,800.0,1.0,4761868061,http://washingtondc.craigslist.org/search/apa?s=100,http://washingtondc.craigslist.org/doc/apa/4761868061.html,2014-11-14 19:08,,-76.9897,38.80345
Veirs Mill & Connecticut Ave,2 Bdrm duplex for rent,1600.0,2.0,4761905751,http://washingtondc.craigslist.org/search/apa?s=100,http://washingtondc.craigslist.org/mld/apa/4761905751.html,2014-11-14 19:06,812.0,-77.071345,39.054185
Bethesda/Chevy Chase/Friendship Heights,1Bed1Bath Most Utilities Included*W/D*Parking*1.5 miles to FH Metro,1650.0,1.0,4761892783,http://washingtondc.craigslist.org/search/apa?s=100,http://washingtondc.craigslist.org/mld/apa/4761892783.html,2014-11-14 19:06,805.0,,
"NE, DC",1 Month FREE* Brand New*1bedroom*Unique Luxury Apartment*,2140.0,1.0,4761890872,http://washingtondc.craigslist.org/search/apa?s=100,http://washingtondc.craigslist.org/doc/apa/4761890872.html,2014-11-14 19:06,709.0,-77.003437,38.908701
"Rockville, MD",Roommate style 2-Bedroom Apartment with a Balcony!,1862.0,2.0,4761829360,http://washingtondc.craigslist.org/search/apa?s=100,http://washingtondc.craigslist.org/mld/apa/4761829360.html,2014-11-14 19:05,1139.0,,
Columbia Heights,First Floor Apartment,1800.0,2.0,4761903612,http://washingtondc.craigslist.org/search/apa?s=100,http://washingtondc.craigslist.org/doc/apa/4761903612.html,2014-11-14 19:05,,,
Lorton VA,Affordable 2 bedroom /2 bath,1339.0,2.0,4761772709,http://washingtondc.craigslist.org/search/apa?s=100,http://washingtondc.craigslist.org/nva/apa/4761772709.html,2014-11-14 19:04,1010.0,,
washington dc,***1 BEDROOMS*** New Renovation ***FREE UTILITIES*** From $775,775.0,1.0,4761877401,http://washingtondc.craigslist.org/search/apa,http://washingtondc.craigslist.org/doc/apa/4761877401.html,2014-11-14 19:58,,,
East Capitol Street Washington DC,Brooks Apartments ** $925 TWO BEDROOM $925 ** Benning Road Metro,925.0,2.0,4761948407,http://washingtondc.craigslist.org/search/apa,http://washingtondc.craigslist.org/doc/apa/4761948407.html,2014-11-14 19:57,,,
WATERFRONT,TIBER ISLAND! NICELY RENOVATED 2BR! ALL UTILITIES & CABLE TV INCL! ,2395.0,2.0,4744875588,http://washingtondc.craigslist.org/search/apa,http://washingtondc.craigslist.org/doc/apa/4744875588.html,2014-11-14 19:57,1225.0,-77.020394,38.874806
WATERFRONT,SPECTACULAR SOUTHERN EXPOSURE/RIVER VIEWS @ TIBER ISLAND! UTILS INCL!,2195.0,1.0,4727997719,http://washingtondc.craigslist.org/search/apa,http://washingtondc.craigslist.org/doc/apa/4727997719.html,2014-11-14 19:57,840.0,-77.019932,38.875699
WATERFRONT,NEWLY RENOVATED 1BR W/ SPECTACULAR RIVER/MONUMENT/SUNSET VIEWS!,1995.0,1.0,4727999505,http://washingtondc.craigslist.org/search/apa,http://washingtondc.craigslist.org/doc/apa/4727999505.html,2014-11-14 19:57,,-77.020394,38.874806
WATERFRONT,TIBER ISLAND! NICELY RENOVATED 2BR! ALL UTILITIES & CABLE TV INCL! ,2495.0,2.0,4751542591,http://washingtondc.craigslist.org/search/apa,http://washingtondc.craigslist.org/doc/apa/4751542591.html,2014-11-14 19:57,1225.0,-77.020394,38.874806
Beltsville,Room for rent $550 ,550.0,1.0,4761967880,http://washingtondc.craigslist.org/search/apa,http://washingtondc.craigslist.org/mld/apa/4761967880.html,2014-11-14 19:57,,,
Chevy Chase,Three Bedroom Apartment with Upgrades Galore! Special!,2665.0,3.0,4761773724,http://washingtondc.craigslist.org/search/apa?s=400,http://washingtondc.craigslist.org/mld/apa/4761773724.html,2014-11-14 18:00,1700.0,-77.093315,38.962779
4849 Connecticut Ave. NW ,Huge studio with alcove--Utilities included,1655.0,,4761784732,http://washingtondc.craigslist.org/search/apa?s=400,http://washingtondc.craigslist.org/doc/apa/4761784732.html,2014-11-14 18:00,650.0,-77.068467,38.952690000000004
"Greenbelt, MD",Open House 11/15/14. Come and Apply and Get Dec. Rent Free ,1139.0,1.0,4761782435,http://washingtondc.craigslist.org/search/apa?s=400,http://washingtondc.craigslist.org/mld/apa/4761782435.html,2014-11-14 17:59,668.0,-76.884,38.9996
"7509 Mandan Road, Suite 104 ",Great 3 Br Specials! Apply Today!,1936.0,3.0,4761680954,http://washingtondc.craigslist.org/search/apa?s=400,http://washingtondc.craigslist.org/mld/apa/4761680954.html,2014-11-14 17:59,,-76.864349,38.991741
Washington DC,************** $775 AIR CONDITIONED ONE BEDROOM $775 **************,775.0,1.0,4761794365,http://washingtondc.craigslist.org/search/apa?s=300,http://washingtondc.craigslist.org/doc/apa/4761794365.html,2014-11-14 18:15,,,
The Louis - 14th & U St NW,FREE RENT 'Til FEB 2015! Only 2 Studios left!,2200.0,,4761835653,http://washingtondc.craigslist.org/search/apa?s=300,http://washingtondc.craigslist.org/doc/apa/4761835653.html,2014-11-14 18:15,474.0,-77.032302,38.916331
Near Red Line Metro Station, 15th Floor One Bedroom Available in Luxury ,1670.0,1.0,4761817917,http://washingtondc.craigslist.org/search/apa?s=300,http://washingtondc.craigslist.org/mld/apa/4761817917.html,2014-11-14 18:14,727.0,,
"704 Waveland Ave, Capitol Heights MD","Just Reduced! Beautiful 3br/2.5ba, 3 level TH w/ 2 car garage ",2350.0,3.0,4757771946,http://washingtondc.craigslist.org/search/apa?s=300,http://washingtondc.craigslist.org/mld/apa/4757771946.html,2014-11-14 18:14,2000.0,-76.8925,38.8897
Old Town,1.5 Months FREE!! a 1 Bedroom YOU NEED to SEE!,1575.0,1.0,4761823443,http://washingtondc.craigslist.org/search/apa?s=300,http://washingtondc.craigslist.org/nva/apa/4761823443.html,2014-11-14 18:14,747.0,-77.05050899999999,38.815853999999995
2975 Hunters Branch Road ,"Deals, and Specials, and Prizes! Oh, my!!!!!!",1740.0,1.0,4761763341,http://washingtondc.craigslist.org/search/apa?s=300,http://washingtondc.craigslist.org/nva/apa/4761763341.html,2014-11-14 18:14,862.0,-77.265472,38.873394
Tysons Corner,"All New 2br, Completely Updated, Open Me!",1220.0,1.0,4761771116,http://washingtondc.craigslist.org/search/apa?s=300,http://washingtondc.craigslist.org/nva/apa/4761771116.html,2014-11-14 18:14,,-77.2337,38.7757
21st & O,Dupont Circle English Basement 1 BR Apartment,1550.0,1.0,4761834775,http://washingtondc.craigslist.org/search/apa?s=300,http://washingtondc.craigslist.org/doc/apa/4761834775.html,2014-11-14 18:14,650.0,-77.046637,38.908568
silver spring,- Longmead Crossing ,2000.0,3.0,4740660666,http://washingtondc.craigslist.org/search/apa?s=200,http://washingtondc.craigslist.org/mld/apa/4740660666.html,2014-11-14 18:36,,,
,Unit 132-302 Available to Move Into Today!,1333.0,2.0,4761788650,http://washingtondc.craigslist.org/search/apa?s=200,http://washingtondc.craigslist.org/nva/apa/4761788650.html,2014-11-14 18:35,1069.0,-77.58587299999999,39.10443
Penn Quarter Gallery Place/Metro Center,"1 Bedroom 1 Bath, Corner Apartment, Large Kitchen",2388.0,1.0,4761864622,http://washingtondc.craigslist.org/search/apa?s=200,http://washingtondc.craigslist.org/doc/apa/4761864622.html,2014-11-14 18:35,667.0,-77.02296199999999,38.894796
Dumfries Woodbridge Quantico Ft Belvoir,Virginia Commons Affordable Luxury 2BR2BA Balcony/Patio ,1250.0,2.0,4730336202,http://washingtondc.craigslist.org/search/apa?s=200,http://washingtondc.craigslist.org/nva/apa/4730336202.html,2014-11-14 18:35,,-77.311832,38.584564
"Arlington, VA",Bright Apartment with Large Balcony,2285.0,2.0,4761849195,http://washingtondc.craigslist.org/search/apa?s=200,http://washingtondc.craigslist.org/nva/apa/4761849195.html,2014-11-14 18:33,1226.0,-77.048941,38.857685
Arlington,A beautiful apartment in convenient Crystal City.,1665.0,1.0,4761860949,http://washingtondc.craigslist.org/search/apa?s=200,http://washingtondc.craigslist.org/nva/apa/4761860949.html,2014-11-14 18:32,705.0,-77.049201,38.860162
Washington,Huge & Newly Remodeled 2 Bed / 2 Bath With Den! Available Now! ,4410.0,2.0,4761839912,http://washingtondc.craigslist.org/search/apa?s=200,http://washingtondc.craigslist.org/doc/apa/4761839912.html,2014-11-14 18:32,1287.0,,
ne dc,1 Month FREE* Brand New*1bed+den*Unique Luxury Apartment*,2625.0,1.0,4761843881,http://washingtondc.craigslist.org/search/apa?s=200,http://washingtondc.craigslist.org/doc/apa/4761843881.html,2014-11-14 18:32,821.0,-77.003437,38.908742
"Columbia, MD - Harper's Choice",HOLIDAY SAVINGS 1 MONTH FREE ON 2 BDRS. WASHER & DRYER IN APT.,1479.0,2.0,4761876427,http://washingtondc.craigslist.org/search/apa?s=100,http://washingtondc.craigslist.org/mld/apa/4761876427.html,2014-11-14 19:04,1056.0,-76.889301,39.221586
Bethesda,Beautiful 2 Bedroom One Bath located near Waldorf School!,1895.0,2.0,4761888144,http://washingtondc.craigslist.org/search/apa?s=100,http://washingtondc.craigslist.org/mld/apa/4761888144.html,2014-11-14 19:04,770.0,-77.117692,38.947533
4437 Windom Pl NW Washington DC 20016,House for Rent in AU Park- 4437 Windom Place NW DC 20016,3300.0,3.0,4749652637,http://washingtondc.craigslist.org/search/apa?s=100,http://washingtondc.craigslist.org/doc/apa/4749652637.html,2014-11-14 19:03,2000.0,-77.087049,38.945536
N. Bethesda/White Flint Metro/Red Line,Glorious AMENITIES! Walk to Metro! 2Br2Ba! W&D in Unit! Garage Park! ,2012.0,2.0,4761883455,http://washingtondc.craigslist.org/search/apa?s=100,http://washingtondc.craigslist.org/mld/apa/4761883455.html,2014-11-14 19:03,1185.0,,
White Flint Metro/N. Bethesda/Red Line,"2 Blocks to Metro-STUDIO-Endless Amenities, Garage Park, Pets OK, W/D",1465.0,,4761887921,http://washingtondc.craigslist.org/search/apa?s=100,http://washingtondc.craigslist.org/mld/apa/4761887921.html,2014-11-14 19:02,563.0,,
Winchester,Comfortable & Secure Two Bedroom Unit ,1065.0,1.0,4761876865,http://washingtondc.craigslist.org/search/apa?s=100,http://washingtondc.craigslist.org/nva/apa/4761876865.html,2014-11-14 19:01,,-77.2649,38.928
College Park,2 Miles From The University of Maryland,1469.0,2.0,4761874853,http://washingtondc.craigslist.org/search/apa?s=100,http://washingtondc.craigslist.org/mld/apa/4761874853.html,2014-11-14 19:01,1254.0,-76.902198,38.991762
ROCKVILLE,"ROCKVILLE, MD/N. BETHESDA",1500.0,1.0,4761897851,http://washingtondc.craigslist.org/search/apa?s=100,http://washingtondc.craigslist.org/mld/apa/4761897851.html,2014-11-14 19:00,,-77.114582,39.050435
gaithersburg,AVAILABLE TO MOVE IN TODAY! SAVE $50 PER MONTH!,1240.0,1.0,4761877028,http://washingtondc.craigslist.org/search/apa,http://washingtondc.craigslist.org/mld/apa/4761877028.html,2014-11-14 19:56,791.0,-77.192066,39.149632000000004
Rhode Island Metro,Old World Charm with New Age Style. Available January 2015,925.0,1.0,4761956264,http://washingtondc.craigslist.org/search/apa,http://washingtondc.craigslist.org/doc/apa/4761956264.html,2014-11-14 19:56,,,
Arlington,Walk to Ballston Metro,2200.0,2.0,4761966267,http://washingtondc.craigslist.org/search/apa,http://washingtondc.craigslist.org/nva/apa/4761966267.html,2014-11-14 19:55,,-77.11499,38.882381
1816 New Hampshire Ave. NW,Stylish and Fully Furnished 1 BR 1BTH in the Heart of D.C.,2200.0,1.0,4761808741,http://washingtondc.craigslist.org/search/apa,http://washingtondc.craigslist.org/doc/apa/4761808741.html,2014-11-14 19:54,520.0,-77.0375,38.9202
alexandria va,TownHouse Style Condo 1.5 Bath & Large Deck Rent To Own,1645.0,2.0,4736393257,http://washingtondc.craigslist.org/search/apa,http://washingtondc.craigslist.org/nva/apa/4736393257.html,2014-11-14 19:54,,-77.1073,38.7192
ne dc,Next to the Redline! Urban Living* No app fee this month!,2154.0,2.0,4761963363,http://washingtondc.craigslist.org/search/apa,http://washingtondc.craigslist.org/doc/apa/4761963363.html,2014-11-14 19:53,996.0,-76.986845,38.92366
washington dc,***2 BEDROOMS*** New Renovation ***FREE UTILITIES*** From $875,875.0,2.0,4761877733,http://washingtondc.craigslist.org/search/apa,http://washingtondc.craigslist.org/doc/apa/4761877733.html,2014-11-14 19:53,,,
,INCREDIBLE 3 BEDROOM APARTMENT AND LOCATION!,1650.0,3.0,4761802056,http://washingtondc.craigslist.org/search/apa?s=400,http://washingtondc.craigslist.org/mld/apa/4761802056.html,2014-11-14 17:59,1226.0,-77.1872,39.1757
"Falls Church, Pimmit Hills"," Tysons Corner, Rt. 7, Rt 123, 495, West Falls Ch & New Silver Line",1795.0,3.0,4761812299,http://washingtondc.craigslist.org/search/apa?s=400,http://washingtondc.craigslist.org/nva/apa/4761812299.html,2014-11-14 17:59,,-77.1895,38.8994
Washington DC,"North East * $825 ONE BEDROOM * I-95, I-295, R-50 Metro Access ",825.0,1.0,4761795653,http://washingtondc.craigslist.org/search/apa?s=400,http://washingtondc.craigslist.org/doc/apa/4761795653.html,2014-11-14 17:59,,,
alexandria va,"*One Bedroom, Amazing Pricing, Perfect Location*",1315.0,1.0,4761801142,http://washingtondc.craigslist.org/search/apa?s=400,http://washingtondc.craigslist.org/nva/apa/4761801142.html,2014-11-14 17:58,700.0,-77.124517,38.811824
"4601 Connecticut Ave, NW Washington DC",SAVE over $3000 if you Apply THIS WEEK. CALL NOW!,2899.0,2.0,4748883912,http://washingtondc.craigslist.org/search/apa?s=400,http://washingtondc.craigslist.org/doc/apa/4748883912.html,2014-11-14 17:58,1000.0,-77.066714,38.949683
Kingstowne,Located In Alexandria!!!,1599.0,2.0,4761760162,http://washingtondc.craigslist.org/search/apa?s=400,http://washingtondc.craigslist.org/nva/apa/4761760162.html,2014-11-14 17:58,858.0,-77.1485,38.7596
Arlington,"Luxury 2 BR, 2 Bathroom Apt in Prime Arlington Location",2250.0,2.0,4761795875,http://washingtondc.craigslist.org/search/apa?s=400,http://washingtondc.craigslist.org/nva/apa/4761795875.html,2014-11-14 17:58,1056.0,-77.076325,38.847606
"National Harbor, MD",One Bedrooms Along Potomac!,1800.0,1.0,4761818644,http://washingtondc.craigslist.org/search/apa?s=300,http://washingtondc.craigslist.org/doc/apa/4761818644.html,2014-11-14 18:14,748.0,,
Gaithersburg,"2 Bed, 2 Bath condo for rent",1400.0,2.0,4761828639,http://washingtondc.craigslist.org/search/apa?s=300,http://washingtondc.craigslist.org/mld/apa/4761828639.html,2014-11-14 18:14,1200.0,,
Downtown/ capitol hill/ DC,"Beautiful remodelled 1 bed, excellent location- utilties included-",1325.0,1.0,4761834231,http://washingtondc.craigslist.org/search/apa?s=300,http://washingtondc.craigslist.org/doc/apa/4761834231.html,2014-11-14 18:14,700.0,,
ALEXANDRIA,"ONE LEVEL * ALEXANDRIA HOME AVAILABLE* RENT, RENT TO OWN* ",1690.0,3.0,4761782963,http://washingtondc.craigslist.org/search/apa?s=300,http://washingtondc.craigslist.org/nva/apa/4761782963.html,2014-11-14 18:14,,-77.1073,38.7192
North Bethesda,Open House Saturday Nov. 15th 1-4 pm ,1450.0,1.0,4761810134,http://washingtondc.craigslist.org/search/apa?s=300,http://washingtondc.craigslist.org/mld/apa/4761810134.html,2014-11-14 18:13,750.0,-77.105935,39.026569
Arlington - Courthouse Metro,"Spacious Studio w/Granite, Wood Floors, and Courtyard Views",1752.0,,4761814245,http://washingtondc.craigslist.org/search/apa?s=300,http://washingtondc.craigslist.org/nva/apa/4761814245.html,2014-11-14 18:13,441.0,-77.081415,38.891496999999994
"Woodbridge, VA",Come visit us this weekend and ask about our wonderful deals,1075.0,1.0,4761744024,http://washingtondc.craigslist.org/search/apa?s=300,http://washingtondc.craigslist.org/nva/apa/4761744024.html,2014-11-14 18:13,588.0,,
woodbridge,renovated nice 3 level townhouse rent it now,1450.0,3.0,4737674357,http://washingtondc.craigslist.org/search/apa?s=300,http://washingtondc.craigslist.org/nva/apa/4737674357.html,2014-11-14 18:13,1500.0,-77.3451,38.6438
Wheaton,"Amazing studio, with a spectacular rooftop view.",1304.0,,4761815423,http://washingtondc.craigslist.org/search/apa?s=200,http://washingtondc.craigslist.org/mld/apa/4761815423.html,2014-11-14 18:32,549.0,,
,Quality and convenience at a price you can afford!,1326.0,1.0,4761775529,http://washingtondc.craigslist.org/search/apa?s=200,http://washingtondc.craigslist.org/nva/apa/4761775529.html,2014-11-14 18:32,749.0,-77.445752,38.866695
Washington DC,Burroughs Apartments From $825**FREE UTILITIES** Capitol Heights Metro,825.0,1.0,4761826906,http://washingtondc.craigslist.org/search/apa?s=200,http://washingtondc.craigslist.org/doc/apa/4761826906.html,2014-11-14 18:32,,,
Ashburn,Pay $0 in rent until January 2015!,1383.0,1.0,4761794778,http://washingtondc.craigslist.org/search/apa?s=200,http://washingtondc.craigslist.org/nva/apa/4761794778.html,2014-11-14 18:31,775.0,-77.48715200000001,39.006778999999995
Bethesda,Short Term Leases Available in beautiful Bethesda community,1895.0,2.0,4758478721,http://washingtondc.craigslist.org/search/apa?s=200,http://washingtondc.craigslist.org/nva/apa/4758478721.html,2014-11-14 18:31,770.0,-77.117692,38.947533
Bethesda,It's time to start living the good life! Luxury apt homes!,2375.0,2.0,4758482126,http://washingtondc.craigslist.org/search/apa?s=200,http://washingtondc.craigslist.org/nva/apa/4758482126.html,2014-11-14 18:31,952.0,-77.117692,38.947533
Navy Yard,1+den Unit Available Now,2288.0,2.0,4721596758,http://washingtondc.craigslist.org/search/apa?s=200,http://washingtondc.craigslist.org/doc/apa/4721596758.html,2014-11-14 18:31,,,
Chevy Chase,Studio Garden Apartment Furnished,1100.0,1.0,4761883683,http://washingtondc.craigslist.org/search/apa?s=100,http://washingtondc.craigslist.org/mld/apa/4761883683.html,2014-11-14 18:59,901.0,-77.096815,38.974474
"Gaithersburg, MD","�AGUA, GAS Y PARQUEO GRATIS! ",1240.0,1.0,4761881438,http://washingtondc.craigslist.org/search/apa?s=100,http://washingtondc.craigslist.org/doc/apa/4761881438.html,2014-11-14 18:59,791.0,-77.192388,39.149566
"Howard, UMD, Catholic, Trinity, AU, UDC",Live At The Top! 24 Hrs Fitness! Cable! Game Room! WiFi! Mall!,759.0,4.0,4761858019,http://washingtondc.craigslist.org/search/apa?s=100,http://washingtondc.craigslist.org/mld/apa/4761858019.html,2014-11-14 18:57,1310.0,-76.953934,38.968537
Vienna/Tyson's/Wolftrap,One Bedroom One Bathroom Apartment ,1000.0,1.0,4761868849,http://washingtondc.craigslist.org/search/apa?s=100,http://washingtondc.craigslist.org/nva/apa/4761868849.html,2014-11-14 18:57,800.0,-77.2649,38.928
"Largo, Bowie, Upper Marlboro, MD","Top floor Penthouse! Walk 2 Metro, Brand New Upgrades! Move-in Now",1291.0,1.0,4761757872,http://washingtondc.craigslist.org/search/apa?s=100,http://washingtondc.craigslist.org/mld/apa/4761757872.html,2014-11-14 18:57,805.0,-76.830812,38.881986
Just West of Herndon Parkway off Old Ox ,3BR/3.5BA Townhouse in Sterling 11/01/2014,2000.0,3.0,4761871564,http://washingtondc.craigslist.org/search/apa?s=100,http://washingtondc.craigslist.org/nva/apa/4761871564.html,2014-11-14 18:56,2052.0,,
Georgetown,"$1,000 Off Charming Studios at Kew Gardens!",1569.0,,4761892174,http://washingtondc.craigslist.org/search/apa?s=100,http://washingtondc.craigslist.org/doc/apa/4761892174.html,2014-11-14 18:56,350.0,-77.055938,38.910454
Beltsville,Room for rent $550 ,550.0,1.0,4761962014,http://washingtondc.craigslist.org/search/apa,http://washingtondc.craigslist.org/mld/apa/4761962014.html,2014-11-14 19:52,,,
Reston,3 bed 2 bath clean street Rent to own new master bedroom,1400.0,3.0,4761869601,http://washingtondc.craigslist.org/search/apa,http://washingtondc.craigslist.org/nva/apa/4761869601.html,2014-11-14 19:52,1946.0,,
Arlington,Gorgeous kitchen with new appliances.,2200.0,2.0,4761961028,http://washingtondc.craigslist.org/search/apa,http://washingtondc.craigslist.org/nva/apa/4761961028.html,2014-11-14 19:51,1015.0,-77.049141,38.859962
Rosslyn / Arlington,Furnished **Remodeled**total renovation**All Utilities included & WiFi,1950.0,1.0,4718857998,http://washingtondc.craigslist.org/search/apa,http://washingtondc.craigslist.org/nva/apa/4718857998.html,2014-11-14 19:50,560.0,-77.06982099999999,38.893353999999995
Bloomingdale,1 BR in Bloomingdale,1950.0,1.0,4761959918,http://washingtondc.craigslist.org/search/apa,http://washingtondc.craigslist.org/doc/apa/4761959918.html,2014-11-14 19:50,800.0,-77.01244399999999,38.914144
"Washington, DC",Studio Apartment! Available Immediately!,1561.0,,4761951041,http://washingtondc.craigslist.org/search/apa,http://washingtondc.craigslist.org/doc/apa/4761951041.html,2014-11-14 19:50,507.0,-77.07244399999999,38.933859999999996
Fairfax,Luxury Condo minutes from shopping/metro/66/50!,1999.0,2.0,4758430656,http://washingtondc.craigslist.org/search/apa,http://washingtondc.craigslist.org/nva/apa/4758430656.html,2014-11-14 19:47,1053.0,-77.3885,38.8776
Congress Heights, 2 bed plus den- Newly Renovated apt in 4 unit building- quiet street,1325.0,2.0,4761935216,http://washingtondc.craigslist.org/search/apa,http://washingtondc.craigslist.org/doc/apa/4761935216.html,2014-11-14 19:47,750.0,-76.99949699999999,38.843059000000004
Woodbridge,"Fully Equipped Kitchen, Washer / Dryer and More ",1119.0,1.0,4761943847,http://washingtondc.craigslist.org/search/apa,http://washingtondc.craigslist.org/nva/apa/4761943847.html,2014-11-14 19:47,713.0,-77.329066,38.681757
Clarendon,Clarendon Chalet Style 2 BR Apartment,2000.0,2.0,4761810778,http://washingtondc.craigslist.org/search/apa?s=400,http://washingtondc.craigslist.org/nva/apa/4761810778.html,2014-11-14 17:58,,-77.0932,38.8871
Alexandria,Apply Now And Save Big!!,1210.0,2.0,4761801511,http://washingtondc.craigslist.org/search/apa?s=400,http://washingtondc.craigslist.org/nva/apa/4761801511.html,2014-11-14 17:58,950.0,-77.12,38.832
Arlington,"Remarkable Amenities, Trendy Community, Community Walking Trails",1704.0,1.0,4761730375,http://washingtondc.craigslist.org/search/apa?s=400,http://washingtondc.craigslist.org/nva/apa/4761730375.html,2014-11-14 17:57,975.0,-77.054902,38.857952000000004
"Arlington, 5 Min Walk to East Falls Church Metro","Top Floor Two Bedroom, Great View!",2919.0,2.0,4761791373,http://washingtondc.craigslist.org/search/apa?s=400,http://washingtondc.craigslist.org/nva/apa/4761791373.html,2014-11-14 17:57,1333.0,,
Washington DC,"Large 1BR, 1Bath Excellent location, utilities inc.",1595.0,1.0,4761797518,http://washingtondc.craigslist.org/search/apa?s=400,http://washingtondc.craigslist.org/doc/apa/4761797518.html,2014-11-14 17:57,840.0,-77.071107,38.957223
Columbia Heights,Large 1bd with Balcony. Come see me,2234.0,1.0,4761802021,http://washingtondc.craigslist.org/search/apa?s=400,http://washingtondc.craigslist.org/doc/apa/4761802021.html,2014-11-14 17:57,722.0,-77.0322,38.9327
Old Town,Newly Renovated with granite and stainless appliances!,1955.0,2.0,4761783250,http://washingtondc.craigslist.org/search/apa?s=400,http://washingtondc.craigslist.org/nva/apa/4761783250.html,2014-11-14 17:57,1062.0,-77.072848,38.803536
Connecticut Ave NW,TODAYS SPECIAL: WAIVED PRORATE! NO APPLICATION FEES! CALL NOW!!,1999.0,1.0,4744105425,http://washingtondc.craigslist.org/search/apa?s=400,http://washingtondc.craigslist.org/doc/apa/4744105425.html,2014-11-14 17:57,775.0,-77.066714,38.949683
511 Four Mile Rd,Welcome Home Park Vue of Alexandria!,1593.0,1.0,4761752899,http://washingtondc.craigslist.org/search/apa?s=300,http://washingtondc.craigslist.org/nva/apa/4761752899.html,2014-11-14 18:12,1005.0,-77.064528,38.842684999999996
1st and Victor,$1250 /mo. - Nice 1Bedroom for Rent - $1250.00/mo.,1250.0,1.0,4750053782,http://washingtondc.craigslist.org/search/apa?s=300,http://washingtondc.craigslist.org/doc/apa/4750053782.html,2014-11-14 18:12,875.0,-77.005899,38.943556
Silver Spring,Beautiful Floorplan! Huge Living&Dining! Washer and Dryer! Call Now!! ,1234.0,2.0,4761774499,http://washingtondc.craigslist.org/search/apa?s=300,http://washingtondc.craigslist.org/mld/apa/4761774499.html,2014-11-14 18:12,1007.0,,
Montgomery Village,"Beautiful and Quiet 3 Bed, 2.5 BA Townhouse, 3 Finished Levels",1850.0,3.0,4761725582,http://washingtondc.craigslist.org/search/apa?s=300,http://washingtondc.craigslist.org/mld/apa/4761725582.html,2014-11-14 18:12,1887.0,-77.19228000000001,39.184602000000005
Bethesda,Master bedroom available in great high-rise apt complext,1000.0,3.0,4761705545,http://washingtondc.craigslist.org/search/apa?s=300,http://washingtondc.craigslist.org/mld/apa/4761705545.html,2014-11-14 18:12,,-77.09739499999999,38.990078999999994
Grosvenor,2 bedroom 2 bath for rent Utilities Inlcuded,2200.0,2.0,4761831804,http://washingtondc.craigslist.org/search/apa?s=300,http://washingtondc.craigslist.org/mld/apa/4761831804.html,2014-11-14 18:12,,,
Petworth,"Beautiful, sunny, spacious garden apartment",1800.0,2.0,4751701066,http://washingtondc.craigslist.org/search/apa?s=300,http://washingtondc.craigslist.org/doc/apa/4751701066.html,2014-11-14 18:12,1000.0,-77.014071,38.950099
Logan Circle,1+DEN IN PERFECT LOCATION,2900.0,2.0,4739050152,http://washingtondc.craigslist.org/search/apa?s=200,http://washingtondc.craigslist.org/doc/apa/4739050152.html,2014-11-14 18:31,,,
Bethesda,"Pet Friendly! Convenient, metro accessible location!",1595.0,1.0,4758478101,http://washingtondc.craigslist.org/search/apa?s=200,http://washingtondc.craigslist.org/mld/apa/4758478101.html,2014-11-14 18:31,620.0,,
Columbia Heights,MODERN STUDIO UNIT,1680.0,,4739308367,http://washingtondc.craigslist.org/search/apa?s=200,http://washingtondc.craigslist.org/doc/apa/4739308367.html,2014-11-14 18:31,,,
Penn Quarter Gallery Place/Metro Center,"Corner Apartment View, Private Balcony",2800.0,1.0,4761858723,http://washingtondc.craigslist.org/search/apa?s=200,http://washingtondc.craigslist.org/doc/apa/4761858723.html,2014-11-14 18:31,813.0,-77.02296199999999,38.894796
Columbia Heights,2+DEN PENTHOUSE LOFT!,4000.0,3.0,4725955154,http://washingtondc.craigslist.org/search/apa?s=200,http://washingtondc.craigslist.org/doc/apa/4725955154.html,2014-11-14 18:31,,,
No-Ma,1 Bedroom Unit Available Now!,1950.0,1.0,4734423908,http://washingtondc.craigslist.org/search/apa?s=200,http://washingtondc.craigslist.org/doc/apa/4734423908.html,2014-11-14 18:31,,,
Woodley Park,Beautiful 1 Bedroom for Great Price! FREE RENT UNTIL 2015!,1860.0,1.0,4736399412,http://washingtondc.craigslist.org/search/apa?s=200,http://washingtondc.craigslist.org/doc/apa/4736399412.html,2014-11-14 18:31,,,
"NoMa, Union Station",SPACIOUS STUDIO IN THE HEART OF DC!!,1636.0,,4739069841,http://washingtondc.craigslist.org/search/apa?s=200,http://washingtondc.craigslist.org/doc/apa/4739069841.html,2014-11-14 18:31,,,
Bethesda,One Bedroom near Sibley Memorial Hospital and NIH,1595.0,1.0,4761878901,http://washingtondc.craigslist.org/search/apa?s=100,http://washingtondc.craigslist.org/mld/apa/4761878901.html,2014-11-14 18:56,620.0,-77.117692,38.947533
ROCKVILLE,"ROCKVILLE, MD./WHITE FLINT AREA",1500.0,1.0,4761891347,http://washingtondc.craigslist.org/search/apa?s=100,http://washingtondc.craigslist.org/mld/apa/4761891347.html,2014-11-14 18:55,,-77.114475,39.050385
rockville,"HURRY LAST FEW REMAIN 1BR TERRACE, Palladian",1574.0,1.0,4761858430,http://washingtondc.craigslist.org/search/apa?s=100,http://washingtondc.craigslist.org/mld/apa/4761858430.html,2014-11-14 18:55,,-77.155754,39.079082
"Foggy Bottom NW, Georgetown","Just 1 block to Foggy Bottom METRO, Washer/Dryer, ROOF DECK",2800.0,2.0,4761875929,http://washingtondc.craigslist.org/search/apa?s=100,http://washingtondc.craigslist.org/doc/apa/4761875929.html,2014-11-14 18:54,,-77.05143299999999,38.899575
Centreville,3BRs and 3.5 Baths - Garage Townhouse ,2100.0,3.0,4761890358,http://washingtondc.craigslist.org/search/apa?s=100,http://washingtondc.craigslist.org/nva/apa/4761890358.html,2014-11-14 18:54,1600.0,-77.45572299999999,38.851569
Gaithersburg,"Beautiful 3 Bed 3.5 Bath (New Carpet, Fridge, Upgraded Kitchen)",1895.0,3.0,4748615632,http://washingtondc.craigslist.org/search/apa?s=100,http://washingtondc.craigslist.org/mld/apa/4748615632.html,2014-11-14 18:54,1750.0,-77.166168,39.163299
Centreville/Clifton,Newly Renovated Basement ,975.0,,4761824226,http://washingtondc.craigslist.org/search/apa?s=100,http://washingtondc.craigslist.org/nva/apa/4761824226.html,2014-11-14 18:54,,-77.414625,38.827890000000004
Stoney Mill/ Kensington,Spacious House Near Park,1775.0,4.0,4761888674,http://washingtondc.craigslist.org/search/apa?s=100,http://washingtondc.craigslist.org/mld/apa/4761888674.html,2014-11-14 18:53,2150.0,-77.087975,39.053717999999996
<0.5 mi to Rockville Metro,Walk to Metro--Large renovated home for rent,2500.0,4.0,4728048362,http://washingtondc.craigslist.org/search/apa,http://washingtondc.craigslist.org/mld/apa/4728048362.html,2014-11-14 19:46,,-77.143636,39.090351
Germantown,Like NEW Condo Near Milestone Shopping Center for Rent,1600.0,2.0,4754761898,http://washingtondc.craigslist.org/search/apa,http://washingtondc.craigslist.org/mld/apa/4754761898.html,2014-11-14 19:46,1220.0,,
New Carrollton / Lanham / Bowie,1 Bedroom Condo / Apartment for Rent,1200.0,1.0,4761955314,http://washingtondc.craigslist.org/search/apa,http://washingtondc.craigslist.org/mld/apa/4761955314.html,2014-11-14 19:46,,-76.87854300000001,38.95664
Fairfax,"Redesigned Kitchens! White Shaker-Style Maple Cabinets, New Lighting",1571.0,2.0,4761877265,http://washingtondc.craigslist.org/search/apa,http://washingtondc.craigslist.org/nva/apa/4761877265.html,2014-11-14 19:45,925.0,-77.3885,38.8776
ne dc,Brand New! 1 Month FREE* Luxury apartment*1 Block to Metro,2747.0,2.0,4761942962,http://washingtondc.craigslist.org/search/apa,http://washingtondc.craigslist.org/doc/apa/4761942962.html,2014-11-14 19:43,1083.0,-77.003351,38.908759
stafford,**ALL Credit Considered**Apply Today/Move Tomorrow**5 BEDROOMS**,2100.0,5.0,4721018584,http://washingtondc.craigslist.org/search/apa,http://washingtondc.craigslist.org/nva/apa/4721018584.html,2014-11-14 19:40,2884.0,-77.379005,38.487927
Upper Marlboro-,Spacious End Unit Town House - w/garage and driveway- large bedrooms,1695.0,2.0,4761933614,http://washingtondc.craigslist.org/search/apa,http://washingtondc.craigslist.org/mld/apa/4761933614.html,2014-11-14 19:39,1500.0,-76.754726,38.825503000000005
Bowie,Just Steps From Town Center 1 Bedroom *With Fireplace Apartment Home,1345.0,1.0,4758716868,http://washingtondc.craigslist.org/search/apa?s=400,http://washingtondc.craigslist.org/mld/apa/4758716868.html,2014-11-14 17:57,807.0,-76.7871,38.9194
Adams Morgan/Dupont Circle/U Street,Studio - EVER THOUGHT OF CHANGING YOUR VIEW!!,1795.0,,4761808760,http://washingtondc.craigslist.org/search/apa?s=400,http://washingtondc.craigslist.org/doc/apa/4761808760.html,2014-11-14 17:57,,-77.044446,38.919587
Alexandria - Near Pentagon City Mall,Fantastic neighborhood! Great apartment homes.,1629.0,1.0,4761776528,http://washingtondc.craigslist.org/search/apa?s=400,http://washingtondc.craigslist.org/nva/apa/4761776528.html,2014-11-14 17:56,1058.0,-77.103598,38.835386
,FANTASTIC 3X2 APARTMENT FOR $ WITH BALCONY!,2150.0,3.0,4761777019,http://washingtondc.craigslist.org/search/apa?s=400,http://washingtondc.craigslist.org/nva/apa/4761777019.html,2014-11-14 17:56,1746.0,-77.1448,38.8502
Woodbridge,Large 2 Bedroom with Fantastic Closets and Large Rooms,1581.0,2.0,4761807436,http://washingtondc.craigslist.org/search/apa?s=400,http://washingtondc.craigslist.org/nva/apa/4761807436.html,2014-11-14 17:56,1000.0,,
"Rockville, MD","Giving Away $1,000 Gift Card to Furnish this Spacious 1BR + Den!",2168.0,1.0,4749041793,http://washingtondc.craigslist.org/search/apa?s=400,http://washingtondc.craigslist.org/mld/apa/4749041793.html,2014-11-14 17:56,1084.0,-77.12815400000001,39.0612
Adams Morgan/Dupont Circle/U Street,Studio - THE ULTIMATE CITY ADDRESS!! OPEN HOUSE SATURDAY!,1795.0,,4761806323,http://washingtondc.craigslist.org/search/apa?s=400,http://washingtondc.craigslist.org/doc/apa/4761806323.html,2014-11-14 17:55,500.0,-77.044446,38.919587
489N Armistead,1Bed 1Bath-Condo at Alexandria city-West,1295.0,1.0,4761806305,http://washingtondc.craigslist.org/search/apa?s=400,http://washingtondc.craigslist.org/nva/apa/4761806305.html,2014-11-14 17:55,761.0,-77.7228,39.1572
,Prepare for a Bargain! Enormous Three Bedroom,2150.0,3.0,4761803270,http://washingtondc.craigslist.org/search/apa?s=300,http://washingtondc.craigslist.org/nva/apa/4761803270.html,2014-11-14 18:12,1746.0,-77.1448,38.8502
The Yards/Capitol Riverfront,"River Views, 1 Month Free, Premier Floor, Free VIDA Membership",2465.0,1.0,4761787183,http://washingtondc.craigslist.org/search/apa?s=300,http://washingtondc.craigslist.org/doc/apa/4761787183.html,2014-11-14 18:11,660.0,-77.0015,38.874897
Silver Spring 20903,HURRY UP! Starting From $900 in 20903,900.0,,4755282476,http://washingtondc.craigslist.org/search/apa?s=300,http://washingtondc.craigslist.org/mld/apa/4755282476.html,2014-11-14 18:11,,,
"Arlington, VA",Spacious 1BR Conveinently Located in Pentagon Row! Steps from Metro,1820.0,1.0,4761829828,http://washingtondc.craigslist.org/search/apa?s=300,http://washingtondc.craigslist.org/nva/apa/4761829828.html,2014-11-14 18:11,705.0,-77.062612,38.862099
Beltsville MD,"Just remodel 2 bedroom,1&1/2 bath",1450.0,2.0,4754061507,http://washingtondc.craigslist.org/search/apa?s=300,http://washingtondc.craigslist.org/mld/apa/4754061507.html,2014-11-14 18:10,989.0,,
,1 bedroom- Open floor plans!! Great for entertaining!!,1405.0,1.0,4761801226,http://washingtondc.craigslist.org/search/apa?s=300,http://washingtondc.craigslist.org/mld/apa/4761801226.html,2014-11-14 18:10,815.0,-77.189,39.1419
alexandria va,Spend Your *Thanksgiving* In Your NEW Apartment ,1699.0,2.0,4761796251,http://washingtondc.craigslist.org/search/apa?s=300,http://washingtondc.craigslist.org/nva/apa/4761796251.html,2014-11-14 18:10,1020.0,,
Van Ness NW DC,Large 2 Bedroom/2 Bath Available Now! Utilities Included! Metro!,2860.0,2.0,4736027901,http://washingtondc.craigslist.org/search/apa?s=200,http://washingtondc.craigslist.org/doc/apa/4736027901.html,2014-11-14 18:30,1100.0,-77.066215,38.948825
"Chinatown, NoMa","1+DEN, 2 BATH IN CHINATOWN * 1 MONTH FREE!*",2630.0,2.0,4739224995,http://washingtondc.craigslist.org/search/apa?s=200,http://washingtondc.craigslist.org/doc/apa/4739224995.html,2014-11-14 18:30,,,
"NoMa, Union Station",1 bedroom unit!,1920.0,1.0,4739073794,http://washingtondc.craigslist.org/search/apa?s=200,http://washingtondc.craigslist.org/doc/apa/4739073794.html,2014-11-14 18:30,,,
"Chinatown, NoMa",1 Bedroom Unit,1890.0,1.0,4725386315,http://washingtondc.craigslist.org/search/apa?s=200,http://washingtondc.craigslist.org/doc/apa/4725386315.html,2014-11-14 18:30,,,
"Navy Yard, Nationals Park",Studio Unit - Move in TODAY!,1730.0,,4734480599,http://washingtondc.craigslist.org/search/apa?s=200,http://washingtondc.craigslist.org/doc/apa/4734480599.html,2014-11-14 18:30,,,
"Chinatown, NoMa",Luxury Studio!!*1 MONTH FREE!*,1650.0,,4739102422,http://washingtondc.craigslist.org/search/apa?s=200,http://washingtondc.craigslist.org/doc/apa/4739102422.html,2014-11-14 18:30,,,
"NoMa, Chinatown",VERY SPACIOUS 2+den ,3300.0,2.0,4721625858,http://washingtondc.craigslist.org/search/apa?s=200,http://washingtondc.craigslist.org/doc/apa/4721625858.html,2014-11-14 18:30,,,
"Wheaton, MD",duplex for rent,1600.0,2.0,4751976081,http://washingtondc.craigslist.org/search/apa?s=100,http://washingtondc.craigslist.org/mld/apa/4751976081.html,2014-11-14 18:53,816.0,-77.07132299999999,39.054334999999995
Capitol Hill NE ,Lovely Renovation / Great location,1695.0,1.0,4761888047,http://washingtondc.craigslist.org/search/apa?s=100,http://washingtondc.craigslist.org/doc/apa/4761888047.html,2014-11-14 18:53,650.0,-76.991527,38.898007
"Arlington, VA",$1350.00 Junior 1 Bedroom Apartment $1350.00,1350.0,1.0,4761787613,http://washingtondc.craigslist.org/search/apa?s=100,http://washingtondc.craigslist.org/nva/apa/4761787613.html,2014-11-14 18:53,,-77.0997,38.859
Gaithersburg ,1050 DISCOUNTED ONE BEDROOM + utilities ,985.0,1.0,4761887802,http://washingtondc.craigslist.org/search/apa?s=100,http://washingtondc.craigslist.org/mld/apa/4761887802.html,2014-11-14 18:52,,,
Crystal City,Large one bedroom Apt. Available in Arlington,1700.0,1.0,4752111777,http://washingtondc.craigslist.org/search/apa?s=100,http://washingtondc.craigslist.org/nva/apa/4752111777.html,2014-11-14 18:52,963.0,-77.052526,38.853378
Gaithersburg ,1050 DISCOUNTED ONE BEDROOM + utilities ,1050.0,1.0,4761886706,http://washingtondc.craigslist.org/search/apa?s=100,http://washingtondc.craigslist.org/mld/apa/4761886706.html,2014-11-14 18:52,,,
Dupont Circle,Executive one bedroom - Move in Ready!,1850.0,,4751202353,http://washingtondc.craigslist.org/search/apa,http://washingtondc.craigslist.org/doc/apa/4751202353.html,2014-11-14 19:39,525.0,-77.044896,38.90809
"Arlington, VA",Move to Myerton Today! Great Specials on 1BR!,1475.0,1.0,4761780612,http://washingtondc.craigslist.org/search/apa,http://washingtondc.craigslist.org/nva/apa/4761780612.html,2014-11-14 19:38,,-77.0997,38.859
Annandale,ALL utilities included - 1BR & private BA in spacious TH,850.0,1.0,4761945459,http://washingtondc.craigslist.org/search/apa,http://washingtondc.craigslist.org/nva/apa/4761945459.html,2014-11-14 19:38,,-77.216034,38.842248
Oxon Hill,We Love Our Residents Park Forest Apts,849.0,1.0,4761922679,http://washingtondc.craigslist.org/search/apa,http://washingtondc.craigslist.org/mld/apa/4761922679.html,2014-11-14 19:37,630.0,-76.9898,38.8108
Fairfax,roomy closets Modern Living!,926.0,4.0,4736788730,http://washingtondc.craigslist.org/search/apa,http://washingtondc.craigslist.org/doc/apa/4736788730.html,2014-11-14 19:37,1787.0,,
"Arlington, VA",Apartment features a pass-thru kitchen,1645.0,1.0,4761941918,http://washingtondc.craigslist.org/search/apa,http://washingtondc.craigslist.org/nva/apa/4761941918.html,2014-11-14 19:35,675.0,-77.048941,38.857685
South Arlington,Spacious 1 BD with great view,1400.0,1.0,4754549558,http://washingtondc.craigslist.org/search/apa,http://washingtondc.craigslist.org/nva/apa/4754549558.html,2014-11-14 19:34,880.0,-77.0997,38.859
Willard st,"DUPONT CIRCLE: CHARMER, SUNNY, CLASS,BRIGHT, SPOTLESS, CUTE EFFICIENCY",1895.0,,4761932179,http://washingtondc.craigslist.org/search/apa,http://washingtondc.craigslist.org/doc/apa/4761932179.html,2014-11-14 19:34,,-77.038473,38.916286
"Fairfax, VA","Ready for You Today!!! 2 Bedroom, One Bath apartments available",1850.0,2.0,4761739376,http://washingtondc.craigslist.org/search/apa?s=400,http://washingtondc.craigslist.org/nva/apa/4761739376.html,2014-11-14 17:55,1086.0,-77.229875,38.861340000000006
Leesburg,Spacious 2 Bedroom Apartments @ The Point at Leesburg!,1383.0,2.0,4761765957,http://washingtondc.craigslist.org/search/apa?s=400,http://washingtondc.craigslist.org/nva/apa/4761765957.html,2014-11-14 17:55,950.0,-77.541036,39.110865999999994
nw washington dc,Luxurious NW*1 bedroom*walk to Metro ,1880.0,1.0,4740370848,http://washingtondc.craigslist.org/search/apa?s=400,http://washingtondc.craigslist.org/doc/apa/4740370848.html,2014-11-14 17:55,565.0,-77.033644,38.932357
"Arlington, VA",Cozy Private Basement with big backyard near Clarendon Metro ,1300.0,1.0,4728636822,http://washingtondc.craigslist.org/search/apa?s=400,http://washingtondc.craigslist.org/nva/apa/4728636822.html,2014-11-14 17:55,700.0,-77.088353,38.880571
nw dc,Luxury Apartment 2 blocks to U street metro!,2318.0,1.0,4717595255,http://washingtondc.craigslist.org/search/apa?s=400,http://washingtondc.craigslist.org/doc/apa/4717595255.html,2014-11-14 17:55,506.0,-77.02975500000001,38.919202
VAN NESS METRO,NO RENT UNTIL JANUARY!! CALL TODAY!!,2200.0,2.0,4721801710,http://washingtondc.craigslist.org/search/apa?s=400,http://washingtondc.craigslist.org/doc/apa/4721801710.html,2014-11-14 17:54,1050.0,-77.06645300000001,38.949146999999996
THIS WEEKEND ONLY,BIGGEST STUDIO WITH THE BIGGEST BALCONY IN DUPONT CIRCLE!$1500 SAVINGS,1970.0,,4761805222,http://washingtondc.craigslist.org/search/apa?s=400,http://washingtondc.craigslist.org/doc/apa/4761805222.html,2014-11-14 17:54,583.0,-77.04489000000001,38.907244
Near Pentagon,"Available Now, Two Blks to Shirlington Vill, Game Room",2253.0,2.0,4761767881,http://washingtondc.craigslist.org/search/apa?s=400,http://washingtondc.craigslist.org/nva/apa/4761767881.html,2014-11-14 17:54,1176.0,-77.081941,38.848007
Alexandria / Arlington Ridge,Huge 1 BR at New Special Low Price! Washer / Dryer in Apt!,1217.0,1.0,4761779161,http://washingtondc.craigslist.org/search/apa?s=300,http://washingtondc.craigslist.org/nva/apa/4761779161.html,2014-11-14 18:10,661.0,-77.069218,38.84304
,Desirable Penderbrook 1BR Condo,1200.0,1.0,4761780607,http://washingtondc.craigslist.org/search/apa?s=300,http://washingtondc.craigslist.org/nva/apa/4761780607.html,2014-11-14 18:10,600.0,-77.3885,38.8776
Old Town,Exciting New Specials and No Parking Fees Until 2015!,1760.0,1.0,4761769024,http://washingtondc.craigslist.org/search/apa?s=300,http://washingtondc.craigslist.org/nva/apa/4761769024.html,2014-11-14 18:10,695.0,-77.059763,38.803115000000005
"Fairfax, VA",Newly Renovated Stunning Apartment Homes! Excellent Location!,1598.0,2.0,4761784612,http://washingtondc.craigslist.org/search/apa?s=300,http://washingtondc.craigslist.org/nva/apa/4761784612.html,2014-11-14 18:10,1004.0,-77.3885,38.8776
"Chinatown, Gallery Place","Incredible 2 BR!!! Just $2,995!!!",2995.0,2.0,4761773148,http://washingtondc.craigslist.org/search/apa?s=300,http://washingtondc.craigslist.org/doc/apa/4761773148.html,2014-11-14 18:09,1194.0,-77.017191,38.900525
Foggy Bottom,Super Pretty Foggy Bottom Studio,1500.0,,4761809941,http://washingtondc.craigslist.org/search/apa?s=300,http://washingtondc.craigslist.org/doc/apa/4761809941.html,2014-11-14 18:09,525.0,,
East Capitol Street Washington DC,Brooks Apartments ** $925 TWO BEDROOM $925 ** Benning Road Metro,925.0,2.0,4761797716,http://washingtondc.craigslist.org/search/apa?s=300,http://washingtondc.craigslist.org/doc/apa/4761797716.html,2014-11-14 18:09,,,
,*******FOR RENT NOW -- 3br 2.5 Ba-2 Car Garage - Beautiful Townhouse,2350.0,3.0,4761815829,http://washingtondc.craigslist.org/search/apa?s=300,http://washingtondc.craigslist.org/mld/apa/4761815829.html,2014-11-14 18:09,2000.0,-76.8925,38.8897
"Chinatown, NoMa",Perfect 2 Bedroom Unit!,3000.0,2.0,4725377413,http://washingtondc.craigslist.org/search/apa?s=200,http://washingtondc.craigslist.org/doc/apa/4725377413.html,2014-11-14 18:30,,,
"Oakton, VA",Entirely Renovated Home in Tysons Area by Vienna Metro - Great Schools,2600.0,4.0,4717627678,http://washingtondc.craigslist.org/search/apa?s=200,http://washingtondc.craigslist.org/nva/apa/4717627678.html,2014-11-14 18:30,2400.0,,
Columbia Heights,1+den available now!,2200.0,2.0,4725948663,http://washingtondc.craigslist.org/search/apa?s=200,http://washingtondc.craigslist.org/doc/apa/4725948663.html,2014-11-14 18:30,,,
Arlington,1 bedroom - Utilities Included,1575.0,1.0,4761812447,http://washingtondc.craigslist.org/search/apa?s=200,http://washingtondc.craigslist.org/nva/apa/4761812447.html,2014-11-14 18:30,,-77.0592,38.8565
"Red Line, NoMa",HUGE 2BD/2BA! Heart of NoMa!,2500.0,2.0,4734430719,http://washingtondc.craigslist.org/search/apa?s=200,http://washingtondc.craigslist.org/doc/apa/4734430719.html,2014-11-14 18:30,,,
Potomac Falls,Great Value. Look no further!,1704.0,3.0,4761811350,http://washingtondc.craigslist.org/search/apa?s=100,http://washingtondc.craigslist.org/nva/apa/4761811350.html,2014-11-14 18:51,1342.0,-77.420275,39.045502
Penn Qtr,Studio Luxury Building 601 Pennsylvania,1895.0,,4761855377,http://washingtondc.craigslist.org/search/apa?s=100,http://washingtondc.craigslist.org/doc/apa/4761855377.html,2014-11-14 18:50,,-77.022228,38.894022
Rosslyn,Beautiful 1BR w/walk-in closets and balcony at Rosslyn Metro,1170.0,,4746386734,http://washingtondc.craigslist.org/search/apa?s=100,http://washingtondc.craigslist.org/nva/apa/4746386734.html,2014-11-14 18:50,,-77.069499,38.896694000000004
Ashburn ,▉ No Money Down Mortgages in Loudoun County!! ▉,,,4753302931,http://washingtondc.craigslist.org/search/apa?s=100,http://washingtondc.craigslist.org/nva/apa/4753302931.html,2014-11-14 18:49,,-77.4805,39.0373
Springfield , █ Easy 1 level living near Ft. Belvoir! █,2150.0,5.0,4733918658,http://washingtondc.craigslist.org/search/apa?s=100,http://washingtondc.craigslist.org/nva/apa/4733918658.html,2014-11-14 18:49,,-77.221838,38.74062
,2 MONTHS FREE AT A BRAND NEW COMMUNITY. COME SEE IT FOR YOURSELF!!!,1470.0,1.0,4758154292,http://washingtondc.craigslist.org/search/apa?s=100,http://washingtondc.craigslist.org/nva/apa/4758154292.html,2014-11-14 18:49,,,
"ne, dc",Brand NEW Studio apartment*2 Month FREE,1750.0,1.0,4761868926,http://washingtondc.craigslist.org/search/apa?s=100,http://washingtondc.craigslist.org/doc/apa/4761868926.html,2014-11-14 18:49,503.0,-77.003426,38.908759
West End/Foggy Bottom/Dupont Circle,MOVE IN SPECIALS~Studio1Ba~Great Location~MOST UTILITIES INCLUDED,1950.0,,4761868550,http://washingtondc.craigslist.org/search/apa?s=100,http://washingtondc.craigslist.org/doc/apa/4761868550.html,2014-11-14 18:49,375.0,,
Providence Village,2 Level TH in sterling,1400.0,2.0,4747888813,http://washingtondc.craigslist.org/search/apa,http://washingtondc.craigslist.org/nva/apa/4747888813.html,2014-11-14 19:33,840.0,-77.3994,39.023
Fairfax,Fixing credit so you can live where you want!,934.0,3.0,4737594524,http://washingtondc.craigslist.org/search/apa,http://washingtondc.craigslist.org/doc/apa/4737594524.html,2014-11-14 19:33,2198.0,,
1816 New Hampshire Ave. NW,Stylish and Fully Furnished 1 BR 1BTH in the Heart of D.C.,2200.0,1.0,4761809608,http://washingtondc.craigslist.org/search/apa,http://washingtondc.craigslist.org/doc/apa/4761809608.html,2014-11-14 19:33,520.0,-77.0375,38.9202
Burke,Two Level Basement Apartment in Burke.,1300.0,1.0,4761938583,http://washingtondc.craigslist.org/search/apa,http://washingtondc.craigslist.org/nva/apa/4761938583.html,2014-11-14 19:32,1100.0,-77.2818,38.7894
,MUST SEE 3BDRM HOME IN WOODMORE ,3000.0,3.0,4738641488,http://washingtondc.craigslist.org/search/apa,http://washingtondc.craigslist.org/mld/apa/4738641488.html,2014-11-14 19:30,2700.0,-76.800442,38.928668
Congress Heights, 2 bed plus den- Newly Renovated apt in 4 unit building- quiet street,1350.0,2.0,4761912919,http://washingtondc.craigslist.org/search/apa,http://washingtondc.craigslist.org/doc/apa/4761912919.html,2014-11-14 19:29,750.0,-76.99949699999999,38.843059000000004
"FORESTVILLE, MD",COZY SINGLE FAMILY HOME,1695.0,4.0,4752025116,http://washingtondc.craigslist.org/search/apa,http://washingtondc.craigslist.org/mld/apa/4752025116.html,2014-11-14 19:28,1800.0,,
,SPACIOUS 2 BEDROOM APARTMENT WITH PRIVATE PATIO! ,1495.0,2.0,4761883023,http://washingtondc.craigslist.org/search/apa,http://washingtondc.craigslist.org/mld/apa/4761883023.html,2014-11-14 19:28,991.0,-77.19278,39.149606
THOMAS CHOICE GARDENS CONDO,GAITHERSBURG/MONTGOMERY VILLAGE,1400.0,2.0,4761910453,http://washingtondc.craigslist.org/search/apa,http://washingtondc.craigslist.org/mld/apa/4761910453.html,2014-11-14 19:27,1117.0,-77.1872,39.1757
500 Ft to SS Metro (Red Line,1 BR w/ Separate Office Space that has Windows w/o the Costly Price!,1799.0,1.0,4761792876,http://washingtondc.craigslist.org/search/apa?s=400,http://washingtondc.craigslist.org/mld/apa/4761792876.html,2014-11-14 17:54,999.0,-77.030328,38.995828
Rosslyn,2bd/2bth with Amazing Views of Georgetown & National Cathedral,3040.0,2.0,4761786546,http://washingtondc.craigslist.org/search/apa?s=400,http://washingtondc.craigslist.org/nva/apa/4761786546.html,2014-11-14 17:54,1165.0,-77.073944,38.895303000000006
"Olney, Silver Spring",*OPEN HOUSE* 3 bed apt with a beautiful upgraded kitchen!!!,1945.0,3.0,4761804685,http://washingtondc.craigslist.org/search/apa?s=400,http://washingtondc.craigslist.org/mld/apa/4761804685.html,2014-11-14 17:54,1150.0,-77.062667,39.154598
"alexandria va, del ray","Need a 2 Bedroom, 2 Bath Now?",2199.0,2.0,4761706734,http://washingtondc.craigslist.org/search/apa?s=400,http://washingtondc.craigslist.org/nva/apa/4761706734.html,2014-11-14 17:54,965.0,-77.059795,38.832454999999996
Leesburg,Beautiful One Bedroom available 11/14!! ,1225.0,1.0,4761737045,http://washingtondc.craigslist.org/search/apa?s=400,http://washingtondc.craigslist.org/nva/apa/4761737045.html,2014-11-14 17:53,590.0,-77.560041,39.101533
Oakdale Place and 5th Street,Spacious duplex in LeDroit Park,4800.0,3.0,4761803691,http://washingtondc.craigslist.org/search/apa?s=400,http://washingtondc.craigslist.org/doc/apa/4761803691.html,2014-11-14 17:53,2000.0,-77.018861,38.917736
"The Ridgeleigh, Alexandria, VA",((OPEN HOUSE))* 2bed/2bath in Alexandria,1810.0,2.0,4761758678,http://washingtondc.craigslist.org/search/apa?s=400,http://washingtondc.craigslist.org/nva/apa/4761758678.html,2014-11-14 17:53,,-77.1194,38.7794
Fairfax,Beautiful 1bed / 1 bath with W/D in unit,1425.0,1.0,4761742537,http://washingtondc.craigslist.org/search/apa?s=400,http://washingtondc.craigslist.org/nva/apa/4761742537.html,2014-11-14 17:53,861.0,-77.229875,38.861340000000006
fairfax 22031, 1 Br Apartment Available Immediately,1476.0,1.0,4761761208,http://washingtondc.craigslist.org/search/apa?s=300,http://washingtondc.craigslist.org/nva/apa/4761761208.html,2014-11-14 18:09,861.0,-77.229875,38.861340000000006
VAN NESS METRO,NEW LOWER PRICES! CALL TODAY!,1595.0,1.0,4721853731,http://washingtondc.craigslist.org/search/apa?s=300,http://washingtondc.craigslist.org/doc/apa/4721853731.html,2014-11-14 18:09,800.0,-77.066946,38.950548
500 Ft to SS Metro (Red Line,Immediate Move in Specials - Spectacular View of Sunset -Move in TODAY,1799.0,2.0,4761728479,http://washingtondc.craigslist.org/search/apa?s=300,http://washingtondc.craigslist.org/mld/apa/4761728479.html,2014-11-14 18:08,999.0,-77.030328,38.995828
Adams Morgan,This brand new apartment offers a modern appliances ,1200.0,1.0,4761798089,http://washingtondc.craigslist.org/search/apa?s=300,http://washingtondc.craigslist.org/doc/apa/4761798089.html,2014-11-14 18:08,,-77.040116,38.921651000000004
STAFFORD,"ALL CREDIT CONSIDERED* RENT, RENT TO OWN HOMES AVAILABLE*",1800.0,4.0,4761744642,http://washingtondc.craigslist.org/search/apa?s=300,http://washingtondc.craigslist.org/nva/apa/4761744642.html,2014-11-14 18:08,,-77.4306,38.4586
Waldorf,Deluxe 1br/1ba Apartment With Personal Fireplace And Gourmet Kitchen! ,730.0,1.0,4761782485,http://washingtondc.craigslist.org/search/apa?s=300,http://washingtondc.craigslist.org/mld/apa/4761782485.html,2014-11-14 18:08,,-77.0007,38.9832
Pimmit Hill,"2 Bedrooms, One Bath",1200.0,2.0,4745504004,http://washingtondc.craigslist.org/search/apa?s=300,http://washingtondc.craigslist.org/nva/apa/4745504004.html,2014-11-14 18:07,900.0,-77.1895,38.8994
Columbia Heights,2 BEDROOM UNIT,2770.0,2.0,4725950581,http://washingtondc.craigslist.org/search/apa?s=200,http://washingtondc.craigslist.org/doc/apa/4725950581.html,2014-11-14 18:30,,,
Navy Yard,Beautiful 1 bedroom near Capital,1870.0,1.0,4734444622,http://washingtondc.craigslist.org/search/apa?s=200,http://washingtondc.craigslist.org/doc/apa/4734444622.html,2014-11-14 18:30,,,
"NoMa, Union Station",1+den available now! Great location!,2560.0,2.0,4734454100,http://washingtondc.craigslist.org/search/apa?s=200,http://washingtondc.craigslist.org/doc/apa/4734454100.html,2014-11-14 18:30,,,
Columbia Heights ,1+DEN UNIT IN GREAT AREA,2195.0,2.0,4739313342,http://washingtondc.craigslist.org/search/apa?s=200,http://washingtondc.craigslist.org/doc/apa/4739313342.html,2014-11-14 18:30,,,
Navy Yard,2 Bedroom Unit Available Now,2380.0,2.0,4721598874,http://washingtondc.craigslist.org/search/apa?s=200,http://washingtondc.craigslist.org/doc/apa/4721598874.html,2014-11-14 18:30,,,
H Street,2+den unit available NOW!,2313.0,3.0,4734436288,http://washingtondc.craigslist.org/search/apa?s=200,http://washingtondc.craigslist.org/doc/apa/4734436288.html,2014-11-14 18:29,,,
"NoMa, Chinatown",Gorgeous 2 Bedroom Unit,3040.0,2.0,4721622798,http://washingtondc.craigslist.org/search/apa?s=200,http://washingtondc.craigslist.org/doc/apa/4721622798.html,2014-11-14 18:29,,,
Woodley Park,STUDIO UNIT W/ FREE RENT UNTIL 2015!!,1580.0,,4734495884,http://washingtondc.craigslist.org/search/apa?s=200,http://washingtondc.craigslist.org/doc/apa/4734495884.html,2014-11-14 18:29,,,
"ARLINGTON,FALLS CHURCH","ONE BEDROOM IN HIGH RISE SECURED BUILDING,ALL UTILITIES INCLUDED",1250.0,1.0,4741310356,http://washingtondc.craigslist.org/search/apa?s=100,http://washingtondc.craigslist.org/nva/apa/4741310356.html,2014-11-14 18:49,562.0,-77.135373,38.86445
ARLINGTON/FALLS CHURCH,"ONE BEDROOM IN HIGH RISE SECURED BUILDING,ALL UTILITIES INCLUDED",1250.0,1.0,4725591816,http://washingtondc.craigslist.org/search/apa?s=100,http://washingtondc.craigslist.org/nva/apa/4725591816.html,2014-11-14 18:49,562.0,-77.135373,38.86445
Gaithersburg ,TOP FLOOR ONE BEDROOM GARDEN VIEWS AND PRIVACY,1100.0,1.0,4761882544,http://washingtondc.craigslist.org/search/apa?s=100,http://washingtondc.craigslist.org/mld/apa/4761882544.html,2014-11-14 18:49,,,
14th Street & U Street,2BD + 2BA W/HIGH END FINISHES | OPEN FLOOR PLAN GREAT FOR ENTERTAINING,3619.0,2.0,4761853403,http://washingtondc.craigslist.org/search/apa?s=100,http://washingtondc.craigslist.org/doc/apa/4761853403.html,2014-11-14 18:48,1000.0,-77.03185400000001,38.920803
"Annandale, VA",THREE BEDROOM - limited offer,1900.0,3.0,4761844957,http://washingtondc.craigslist.org/search/apa?s=100,http://washingtondc.craigslist.org/nva/apa/4761844957.html,2014-11-14 18:48,1526.0,-77.217662,38.825905999999996
ANNANDALE,Amazing Deal on This 3BR 1DEN 2BA Ready for Rent! ,2300.0,3.0,4761846270,http://washingtondc.craigslist.org/search/apa?s=100,http://washingtondc.craigslist.org/nva/apa/4761846270.html,2014-11-14 18:48,1818.0,-77.2142,38.8307
"Herndon, VA",1 Month OFF - Gorgeous One Bedroom Immediate Move in - Dulles Greene ,1382.0,1.0,4761816701,http://washingtondc.craigslist.org/search/apa?s=100,http://washingtondc.craigslist.org/nva/apa/4761816701.html,2014-11-14 18:48,815.0,-77.41534200000001,38.967605999999996
Gaithersburg ,SPACIOUS ONE BEDROOM $400 discount,1100.0,1.0,4761881328,http://washingtondc.craigslist.org/search/apa?s=100,http://washingtondc.craigslist.org/mld/apa/4761881328.html,2014-11-14 18:48,,,
"Washington, DC","Luxury Living w/o the Price! 2BR/2BTH Apartment, Lots of Amenities",2667.0,2.0,4761897129,http://washingtondc.craigslist.org/search/apa,http://washingtondc.craigslist.org/doc/apa/4761897129.html,2014-11-14 19:26,950.0,-77.07244399999999,38.933859999999996
u street,"GORGEOUS 2BR/2BA, tons of light AMAZING LOCATION! ",2850.0,2.0,4739813504,http://washingtondc.craigslist.org/search/apa,http://washingtondc.craigslist.org/doc/apa/4739813504.html,2014-11-14 19:26,945.0,,
Merrill House Apartments,Spacious Studios Available in Falls Church City!,1124.0,,4761823226,http://washingtondc.craigslist.org/search/apa,http://washingtondc.craigslist.org/nva/apa/4761823226.html,2014-11-14 19:26,540.0,-77.16974499999999,38.880336
Cathedral Heights,Incredible 2 bd 2 ba at the Majestic Towers ALL UTILITIES INCL!,2950.0,2.0,4757777350,http://washingtondc.craigslist.org/search/apa,http://washingtondc.craigslist.org/doc/apa/4757777350.html,2014-11-14 19:26,1146.0,-77.08039000000001,38.930196
Mt. Pleasant/Adams Morgan,"Stunning 1 bedroom, beautiful Art-deco bldg OPEN HOUSE SAT 11AM",1600.0,1.0,4757776549,http://washingtondc.craigslist.org/search/apa,http://washingtondc.craigslist.org/doc/apa/4757776549.html,2014-11-14 19:26,509.0,,
ALEXANDRIA VA,I'M GORGEOUS AND MOVE-IN READY ,3775.0,5.0,4751184512,http://washingtondc.craigslist.org/search/apa,http://washingtondc.craigslist.org/nva/apa/4751184512.html,2014-11-14 19:25,4800.0,-77.1194,38.7794
Lanham 20706,Fantastic Deal!!! Starting From $800 in Lanham 20706,800.0,,4749228653,http://washingtondc.craigslist.org/search/apa,http://washingtondc.craigslist.org/mld/apa/4749228653.html,2014-11-14 19:25,,,
"100 King Street, Alexandria VA","Large, Waterfront, 2-level Old Town Alexandria",2450.0,1.0,4761803127,http://washingtondc.craigslist.org/search/apa?s=400,http://washingtondc.craigslist.org/nva/apa/4761803127.html,2014-11-14 17:53,1650.0,-77.040266,38.804231
fairfax va,Residents Wanted: No experience Necessary!! ,1425.0,1.0,4761761165,http://washingtondc.craigslist.org/search/apa?s=400,http://washingtondc.craigslist.org/nva/apa/4761761165.html,2014-11-14 17:53,861.0,-77.229875,38.861340000000006
Logan Circle,"Cute Studio, Steps from Whole Foods & Logan Circle",1455.0,,4761789365,http://washingtondc.craigslist.org/search/apa?s=400,http://washingtondc.craigslist.org/doc/apa/4761789365.html,2014-11-14 17:53,342.0,-77.034009,38.907933
montgomery village,PREGUNTA COMO PUEDES GANAR UN TRIP ,1640.0,3.0,4761792074,http://washingtondc.craigslist.org/search/apa?s=400,http://washingtondc.craigslist.org/mld/apa/4761792074.html,2014-11-14 17:52,1226.0,-77.202011,39.156653999999996
"100 King Street, Alexandria VA","Large & Sunny, Waterfront, Old Town Alexandria",2450.0,1.0,4761802509,http://washingtondc.craigslist.org/search/apa?s=400,http://washingtondc.craigslist.org/nva/apa/4761802509.html,2014-11-14 17:52,1650.0,-77.040266,38.804231
Centreville,Great Garage townhouse in Centre Ridge,1985.0,3.0,4761802455,http://washingtondc.craigslist.org/search/apa?s=400,http://washingtondc.craigslist.org/nva/apa/4761802455.html,2014-11-14 17:52,,-77.443936,38.827857
Cleveland Park,1 bedroom in upper NW! Pet friendly! Easy parking!,2240.0,1.0,4761787264,http://washingtondc.craigslist.org/search/apa?s=400,http://washingtondc.craigslist.org/doc/apa/4761787264.html,2014-11-14 17:52,800.0,,
Adams Morgan / Kalorama,Kalorama - Ground Floor Unit. Beautiful 2BR. Newly Renovated. ,2950.0,2.0,4761802323,http://washingtondc.craigslist.org/search/apa?s=400,http://washingtondc.craigslist.org/doc/apa/4761802323.html,2014-11-14 17:52,1300.0,-77.044451,38.921191
Commons at White Marsh,Falling Leaves...Falling Prices...both are happening here!!!,965.0,2.0,4758615561,http://washingtondc.craigslist.org/search/apa?s=300,http://washingtondc.craigslist.org/mld/apa/4758615561.html,2014-11-14 18:07,795.0,-76.4153,39.3401
"1200 North Veitch Street Arlington, VA",1 Bedroom w/ Private Bath in awesome 2 Bedroom Courthouse Apartment,1350.0,,4758605353,http://washingtondc.craigslist.org/search/apa?s=300,http://washingtondc.craigslist.org/nva/apa/4758605353.html,2014-11-14 18:07,,-77.084968,38.887671000000005
Shirlington Village,Townhome available for immediate move in!!!,2870.0,1.0,4761806843,http://washingtondc.craigslist.org/search/apa?s=300,http://washingtondc.craigslist.org/nva/apa/4761806843.html,2014-11-14 18:07,1439.0,-77.08644699999999,38.841794
,Two Bedroom 1 Full Bath Middle Floor W/Great Amenities,1172.0,2.0,4761708785,http://washingtondc.craigslist.org/search/apa?s=300,http://washingtondc.craigslist.org/mld/apa/4761708785.html,2014-11-14 18:07,873.0,-76.90209,38.846851
bethesda,Great Rental in Bethesda check it out,3000.0,3.0,4758159621,http://washingtondc.craigslist.org/search/apa?s=300,http://washingtondc.craigslist.org/mld/apa/4758159621.html,2014-11-14 18:07,,-77.133636,39.015383
Silver Spring/ Wheaton/ Aspen Hill/ DC,Smart layout for a 1 bed home on third floor ready now! W/D included,1227.0,1.0,4761792371,http://washingtondc.craigslist.org/search/apa?s=300,http://washingtondc.craigslist.org/mld/apa/4761792371.html,2014-11-14 18:07,805.0,-77.066925,39.088968
Rockville,3 bedroom 2.5 bath for Townhouse for rent,2699.0,3.0,4761824118,http://washingtondc.craigslist.org/search/apa?s=300,http://washingtondc.craigslist.org/mld/apa/4761824118.html,2014-11-14 18:07,,-77.168,39.087
Kingstowne,Winter Specials Are Here.... $1599.00,1599.0,2.0,4761762372,http://washingtondc.craigslist.org/search/apa?s=300,http://washingtondc.craigslist.org/nva/apa/4761762372.html,2014-11-14 18:06,858.0,,
Chinatown,2 BEDROOM UNIT. *1 FREE MONTH*,3020.0,2.0,4739228556,http://washingtondc.craigslist.org/search/apa?s=200,http://washingtondc.craigslist.org/doc/apa/4739228556.html,2014-11-14 18:29,,,
Navy Yard,Spacious 1+den. Great Price!,2288.0,2.0,4734461311,http://washingtondc.craigslist.org/search/apa?s=200,http://washingtondc.craigslist.org/doc/apa/4734461311.html,2014-11-14 18:29,,,
North East Washington DC,Deanwood North East ** $825 ONE BEDROOM SPECIAL $825 ** Deanwood Metro,825.0,1.0,4761800897,http://washingtondc.craigslist.org/search/apa?s=200,http://washingtondc.craigslist.org/doc/apa/4761800897.html,2014-11-14 18:28,,-76.928565,38.907888
"Chantilly, south riding, ashburn","Newly renovated 3 level, 2 car garage, Brick Front Townhouse",2048.0,3.0,4749896314,http://washingtondc.craigslist.org/search/apa?s=200,http://washingtondc.craigslist.org/nva/apa/4749896314.html,2014-11-14 18:28,2351.0,,
U Street Corridor,"Beautiful 1BR, Sat. Tours with Dec. Free, Boutique Historic Building",2440.0,1.0,4761870621,http://washingtondc.craigslist.org/search/apa?s=100,http://washingtondc.craigslist.org/doc/apa/4761870621.html,2014-11-14 18:47,,-77.0375,38.9202
ANNANDALE,Awsome Deal on This 3BR 2BA Ready for Rent! ,1900.0,3.0,4761845397,http://washingtondc.craigslist.org/search/apa?s=100,http://washingtondc.craigslist.org/nva/apa/4761845397.html,2014-11-14 18:47,1526.0,-77.2142,38.8307
"Annandale, VA",THREE BEDROOM - limited offer,1900.0,3.0,4761844949,http://washingtondc.craigslist.org/search/apa?s=100,http://washingtondc.craigslist.org/nva/apa/4761844949.html,2014-11-14 18:47,1526.0,-77.217662,38.825905999999996
Fairfax,Gorgeous 1 Bed 1 Bath. Call for amazing deals and pricing,1425.0,1.0,4761743798,http://washingtondc.craigslist.org/search/apa?s=100,http://washingtondc.craigslist.org/nva/apa/4761743798.html,2014-11-14 18:47,861.0,-77.229875,38.861340000000006
Gaithersburg ,HALF MONTH FREE AVAILABLE NOW!!!! ONE BEDROOM FIRST FLOOR,1000.0,1.0,4761879733,http://washingtondc.craigslist.org/search/apa?s=100,http://washingtondc.craigslist.org/mld/apa/4761879733.html,2014-11-14 18:46,,,
"Annandale, VA",THREE BEDROOM - limited offer,1900.0,3.0,4761845382,http://washingtondc.craigslist.org/search/apa?s=100,http://washingtondc.craigslist.org/nva/apa/4761845382.html,2014-11-14 18:46,1526.0,-77.217662,38.825905999999996
Adams Morgan,Lease this Sunny Corner One Bedroom Today,2205.0,1.0,4761789944,http://washingtondc.craigslist.org/search/apa?s=100,http://washingtondc.craigslist.org/doc/apa/4761789944.html,2014-11-14 18:46,,,
STAFFORD,"JUST IN TIME FOR CHRISTMAS- RENT, RENT TO OWN- CALL US TODAY! ",2400.0,4.0,4761826818,http://washingtondc.craigslist.org/search/apa?s=100,http://washingtondc.craigslist.org/nva/apa/4761826818.html,2014-11-14 18:45,,-77.5102,38.4718
Merrifield,Gorgeous End Unit Townhouse across from Dunn Loring Metro,2850.0,3.0,4755131602,http://washingtondc.craigslist.org/search/apa,http://washingtondc.craigslist.org/nva/apa/4755131602.html,2014-11-14 19:24,1586.0,-77.225819,38.880577
MCLEAN,ALL UTILS INCLUDED 2BR 2BA,2495.0,2.0,4757831185,http://washingtondc.craigslist.org/search/apa,http://washingtondc.craigslist.org/nva/apa/4757831185.html,2014-11-14 19:23,1500.0,-77.177711,38.939491
Columbia Heights,Partially furnished room in 3-bedroom basement apartment,925.0,3.0,4744582156,http://washingtondc.craigslist.org/search/apa,http://washingtondc.craigslist.org/doc/apa/4744582156.html,2014-11-14 19:23,,-77.032612,38.928805
Arlington,2bed/2bath granite w/hardwood floors!! Lease today!,2323.0,2.0,4761912837,http://washingtondc.craigslist.org/search/apa,http://washingtondc.craigslist.org/nva/apa/4761912837.html,2014-11-14 19:23,994.0,-77.117301,38.854012
North Bethesda,Spacious Condo - 10 min. walk to Metro- Grosvenor Place- move in ASAP,2095.0,2.0,4761911310,http://washingtondc.craigslist.org/search/apa,http://washingtondc.craigslist.org/mld/apa/4761911310.html,2014-11-14 19:21,1200.0,-77.1204,39.0496
Cleveland Park,One bedroom condo $1700/month,1700.0,1.0,4761923681,http://washingtondc.craigslist.org/search/apa,http://washingtondc.craigslist.org/doc/apa/4761923681.html,2014-11-14 19:20,800.0,-77.058492,38.935511
Dupont Circle/West End/Foggy Bottom,Top Floor 2Br1Ba! MOVE IN FEE WAIVED~,3100.0,2.0,4761858857,http://washingtondc.craigslist.org/search/apa,http://washingtondc.craigslist.org/doc/apa/4761858857.html,2014-11-14 19:20,700.0,,
Merrill House Apartments,Spacious Two Bedroom Available in Falls Church City!,1772.0,2.0,4761824234,http://washingtondc.craigslist.org/search/apa,http://washingtondc.craigslist.org/nva/apa/4761824234.html,2014-11-14 19:20,1065.0,-77.16974499999999,38.880336
Adams Morgan,Christmas Sublet,1000.0,1.0,4761802250,http://washingtondc.craigslist.org/search/apa?s=400,http://washingtondc.craigslist.org/doc/apa/4761802250.html,2014-11-14 17:52,,,
Alexandria - Near Hoffman Town Center,"Upscale, spacious living can be yours! Come in today!",1150.0,,4761741266,http://washingtondc.craigslist.org/search/apa?s=400,http://washingtondc.craigslist.org/nva/apa/4761741266.html,2014-11-14 17:52,430.0,-77.0814,38.7912
"100 King Street, Alexandria VA","Live/Work, Large, 2-level Old Town Alexandria",2450.0,1.0,4761801898,http://washingtondc.craigslist.org/search/apa?s=400,http://washingtondc.craigslist.org/nva/apa/4761801898.html,2014-11-14 17:52,1650.0,-77.040266,38.804231
1 stop from 14th & U,2bd 2ba roommate style for $1450 a room,2900.0,2.0,4761785026,http://washingtondc.craigslist.org/search/apa?s=400,http://washingtondc.craigslist.org/doc/apa/4761785026.html,2014-11-14 17:52,1146.0,-77.0322,38.9327
TRIANGLE,**BEAUTIFUL TOWNHOUSE***,1350.0,3.0,4737245009,http://washingtondc.craigslist.org/search/apa?s=400,http://washingtondc.craigslist.org/nva/apa/4737245009.html,2014-11-14 17:52,,-77.32220600000001,38.548837
"100 King Street, Alexandria VA","Large loft-style, 2-level Old Town Alexandria",2450.0,1.0,4761801246,http://washingtondc.craigslist.org/search/apa?s=400,http://washingtondc.craigslist.org/nva/apa/4761801246.html,2014-11-14 17:52,1650.0,-77.040266,38.804231
,Adorable townhome in quiet cul-de-sac,1800.0,3.0,4761801166,http://washingtondc.craigslist.org/search/apa?s=400,http://washingtondc.craigslist.org/mld/apa/4761801166.html,2014-11-14 17:51,1130.0,-77.0059,39.1148
,2BR 1.25BA w/ private VANITY in Master!!,1215.0,2.0,4761785932,http://washingtondc.craigslist.org/search/apa?s=400,http://washingtondc.craigslist.org/mld/apa/4761785932.html,2014-11-14 17:51,905.0,-77.2822,39.1355
,3 Bed/3.5 Bath Townhouse in Fairfax (Great Location),2299.0,3.0,4742093909,http://washingtondc.craigslist.org/search/apa?s=300,http://washingtondc.craigslist.org/nva/apa/4742093909.html,2014-11-14 18:06,2142.0,-77.369843,38.849643
Kingstowne,We love Our Four-Legged Friends!!! ,2000.0,2.0,4761750636,http://washingtondc.craigslist.org/search/apa?s=300,http://washingtondc.craigslist.org/nva/apa/4761750636.html,2014-11-14 18:06,1076.0,,
"Alexandria, VA",Beautiful apartment Home with Walk in Closets,1420.0,1.0,4761782066,http://washingtondc.craigslist.org/search/apa?s=300,http://washingtondc.craigslist.org/nva/apa/4761782066.html,2014-11-14 18:06,761.0,-77.051969,38.837972
704 Waveland Ave.,RENT NOW - 3br 2.5 Ba- 2 Car Garage - Beautiful Townhouse For Rent,2350.0,3.0,4756759097,http://washingtondc.craigslist.org/search/apa?s=300,http://washingtondc.craigslist.org/mld/apa/4756759097.html,2014-11-14 18:05,2000.0,-76.8925,38.8897
,*******FOR RENT NOW -- 3br 2.5 Ba-2 Car Garage - Beautiful Townhouse,2350.0,3.0,4761821959,http://washingtondc.craigslist.org/search/apa?s=300,http://washingtondc.craigslist.org/mld/apa/4761821959.html,2014-11-14 18:05,2000.0,-76.8925,38.8897
,A Place To Call Home! You Will Be Proud To Live Here!,1313.0,,4761760387,http://washingtondc.craigslist.org/search/apa?s=300,http://washingtondc.craigslist.org/nva/apa/4761760387.html,2014-11-14 18:05,691.0,-77.3163,38.676
"Hyattsville, MD","Convenient Location, Playground Area, Formal Dining Area",1125.0,2.0,4761738120,http://washingtondc.craigslist.org/search/apa?s=300,http://washingtondc.craigslist.org/mld/apa/4761738120.html,2014-11-14 18:05,710.0,,
 Arlington," Luxury One Bedroom With Den, Free Parking for 1 Year",2910.0,1.0,4761822695,http://washingtondc.craigslist.org/search/apa?s=200,http://washingtondc.craigslist.org/nva/apa/4761822695.html,2014-11-14 18:28,934.0,-77.07867399999999,38.887214
Penn Quarter Gallery Place/Metro Center,"Studio Corner Apartment, Walkin Closet",1950.0,,4761853970,http://washingtondc.craigslist.org/search/apa?s=200,http://washingtondc.craigslist.org/doc/apa/4761853970.html,2014-11-14 18:27,541.0,-77.02296199999999,38.894796
Old Town Alexandria,SPECIAL! Spacious Studio W/ Sunroom & W/D 1 blocks from the metro!!,1490.0,,4761830872,http://washingtondc.craigslist.org/search/apa?s=200,http://washingtondc.craigslist.org/nva/apa/4761830872.html,2014-11-14 18:27,605.0,-77.05042399999999,38.81592
140 South Van Dorn Street ,Beautiful Corner 1BR-Plenty of Natural Light Washer and Dryer $1410.00,1410.0,1.0,4761837856,http://washingtondc.craigslist.org/search/apa?s=200,http://washingtondc.craigslist.org/nva/apa/4761837856.html,2014-11-14 18:27,843.0,-77.131469,38.811824
Dupont Circle,Gorgeous Studio Apartments in the heart of DuPont Circle!,1750.0,,4761831805,http://washingtondc.craigslist.org/search/apa?s=200,http://washingtondc.craigslist.org/doc/apa/4761831805.html,2014-11-14 18:27,460.0,-77.046998,38.905853
Foggy Bottom/Dupont Circle/West End,"2Br1Ba Top Floor, High Ceilings, One month FREE, Only pay Electricity ",2950.0,2.0,4735607880,http://washingtondc.craigslist.org/search/apa?s=200,http://washingtondc.craigslist.org/doc/apa/4735607880.html,2014-11-14 18:27,625.0,,
Mt. Pleasant/Columbia Heights Metro,COZY 1Br1Ba*Near Metro*Some Utilities PAID*Cats OK,1535.0,1.0,4729954641,http://washingtondc.craigslist.org/search/apa?s=200,http://washingtondc.craigslist.org/doc/apa/4729954641.html,2014-11-14 18:27,462.0,,
U Street Corridor,"Open Plan Brand New Apt with Porch, 92 Walkscore, Pets Welcome",1990.0,1.0,4761865740,http://washingtondc.craigslist.org/search/apa?s=100,http://washingtondc.craigslist.org/doc/apa/4761865740.html,2014-11-14 18:45,,-77.0375,38.9202
Chinatown/Logan/Penn Quarter NW,1 Block to Chinatown METRO + Washer/Dryer + Roof-top DECK+Garage Space,2800.0,2.0,4761877050,http://washingtondc.craigslist.org/search/apa?s=100,http://washingtondc.craigslist.org/doc/apa/4761877050.html,2014-11-14 18:44,1050.0,-77.019932,38.899821
Washington DC,1106 Eastern Avenue **FREE UTILITIES** Deanwood Metro,825.0,1.0,4761817555,http://washingtondc.craigslist.org/search/apa?s=100,http://washingtondc.craigslist.org/doc/apa/4761817555.html,2014-11-14 18:44,,-76.925086,38.905164
"Herndon, VA",2 Months FREE!!!! 2 Bedroom 2 Bath - Dulles Greene,1742.0,2.0,4761809586,http://washingtondc.craigslist.org/search/apa?s=100,http://washingtondc.craigslist.org/nva/apa/4761809586.html,2014-11-14 18:44,1265.0,-77.41534200000001,38.967605999999996
SE- Washington DC,OPEN HOUSE SUN!! 2 bdrm Condo Near Metro. Gated prkg.. SS Appl,1450.0,2.0,4742530495,http://washingtondc.craigslist.org/search/apa?s=100,http://washingtondc.craigslist.org/doc/apa/4742530495.html,2014-11-14 18:44,790.0,,
"Arlington, VA","HUGE One and Den, Den is size of bedroom, great location in Ballston!",1855.0,1.0,4761859429,http://washingtondc.craigslist.org/search/apa?s=100,http://washingtondc.craigslist.org/nva/apa/4761859429.html,2014-11-14 18:43,781.0,-77.107495,38.879874
UPDATED PICS,Historic & Private MD/DC Line Takoma Station RedLine *** LOCATION!! ,1350.0,1.0,4756033890,http://washingtondc.craigslist.org/search/apa?s=100,http://washingtondc.craigslist.org/doc/apa/4756033890.html,2014-11-14 18:43,1200.0,-77.0007,38.9832
"H St, NoMa, Union Station, Capitol Hill",1 ba English basement available Nov 15th,1500.0,1.0,4743216017,http://washingtondc.craigslist.org/search/apa?s=100,http://washingtondc.craigslist.org/doc/apa/4743216017.html,2014-11-14 18:43,600.0,-76.999507,38.900203999999995
"Arlington, VA",Amazing Location in Arlington!!!!! Must See!!!,1475.0,1.0,4761795567,http://washingtondc.craigslist.org/search/apa,http://washingtondc.craigslist.org/nva/apa/4761795567.html,2014-11-14 19:19,,-77.0997,38.859
West End/Dupont Circle/Foggy Bottom,Top Floor Studio1Ba! Move in Specials! Brand New! Renovated! ,2200.0,,4761875454,http://washingtondc.craigslist.org/search/apa,http://washingtondc.craigslist.org/doc/apa/4761875454.html,2014-11-14 19:18,375.0,,
Near National Harbor,Portabello Apartments Come Take A Tour Of Our Beautiful Community!!,1069.0,1.0,4761756498,http://washingtondc.craigslist.org/search/apa,http://washingtondc.craigslist.org/doc/apa/4761756498.html,2014-11-14 19:17,653.0,-76.986512,38.800657
Beltsville,Beltsville Lovely place 3bd 2bth awesome totally updated,1050.0,3.0,4761771099,http://washingtondc.craigslist.org/search/apa,http://washingtondc.craigslist.org/mld/apa/4761771099.html,2014-11-14 19:16,2075.0,,
"Chantilly, VA",Luxurious Townhouse for Rent - HUGE!,2900.0,5.0,4761918109,http://washingtondc.craigslist.org/search/apa,http://washingtondc.craigslist.org/nva/apa/4761918109.html,2014-11-14 19:16,4708.0,-77.531837,38.927040000000005
NE DC- Off Bladenburg AVE,Single family home w/Garage and kitchenette in basement,1900.0,2.0,4739250219,http://washingtondc.craigslist.org/search/apa,http://washingtondc.craigslist.org/doc/apa/4739250219.html,2014-11-14 19:16,1400.0,-76.972163,38.912594
ALEXANDRIA,2BR TH/CONDO NEAR SHIRLINGTON,1695.0,2.0,4761901280,http://washingtondc.craigslist.org/search/apa,http://washingtondc.craigslist.org/nva/apa/4761901280.html,2014-11-14 19:16,1100.0,-77.079316,38.833687
Alexandria 22304,STARTING FROM $1000 in Alexandria,1000.0,,4749216230,http://washingtondc.craigslist.org/search/apa,http://washingtondc.craigslist.org/nva/apa/4749216230.html,2014-11-14 19:15,,,
Lanham,OPEN HOUSE THIS WEEKEND NO APP FEE'S APPLY NOW!!!!,1255.0,2.0,4761779615,http://washingtondc.craigslist.org/search/apa?s=400,http://washingtondc.craigslist.org/mld/apa/4761779615.html,2014-11-14 17:51,950.0,-76.8551,38.9675
Lee Highway and E Broad Street,Gas Stove! Central Air Conditioning & Heat! Pet Friendly!,1294.0,1.0,4761768345,http://washingtondc.craigslist.org/search/apa?s=400,http://washingtondc.craigslist.org/nva/apa/4761768345.html,2014-11-14 17:51,763.0,-77.16974499999999,38.880336
Leesburg,$500 Waived On Your November Rent!!,1425.0,1.0,4761782213,http://washingtondc.craigslist.org/search/apa?s=400,http://washingtondc.craigslist.org/nva/apa/4761782213.html,2014-11-14 17:51,931.0,-77.525883,39.089135
T Street NW,Dupont Circle Large Basement Apartment,1900.0,1.0,4761791014,http://washingtondc.craigslist.org/search/apa?s=400,http://washingtondc.craigslist.org/doc/apa/4761791014.html,2014-11-14 17:51,750.0,,
,3 Bed/3.5 Bath - Townhouse in Fairfax (Great Location!),2299.0,3.0,4756613662,http://washingtondc.craigslist.org/search/apa?s=300,http://washingtondc.craigslist.org/nva/apa/4756613662.html,2014-11-14 18:05,2142.0,-77.369328,38.849668
,Large 2 bedroom 2 bathroom apartment- Great for roommates!!,1700.0,2.0,4761650406,http://washingtondc.craigslist.org/search/apa?s=300,http://washingtondc.craigslist.org/mld/apa/4761650406.html,2014-11-14 18:05,1203.0,,
Washington DC,**************** RENOVATED ONE BEDROOM **************,825.0,1.0,4761792444,http://washingtondc.craigslist.org/search/apa?s=300,http://washingtondc.craigslist.org/doc/apa/4761792444.html,2014-11-14 18:05,,,
704 Waveland Ave. Capitol Heights MD,"Just Reduced! Beautiful 3br/2.5ba, 3 level TH w/ 2 car garage",2350.0,3.0,4756768690,http://washingtondc.craigslist.org/search/apa?s=300,http://washingtondc.craigslist.org/mld/apa/4756768690.html,2014-11-14 18:04,2000.0,-76.8925,38.8897
"Herndon, Reston, Fairfax, Dulles",Huge Price Reduction!,1390.0,1.0,4761812183,http://washingtondc.craigslist.org/search/apa?s=300,http://washingtondc.craigslist.org/nva/apa/4761812183.html,2014-11-14 18:04,800.0,,
"Arlington, VA",Cute 479 SqFt studio available near the BEST shopping!,1525.0,,4761772031,http://washingtondc.craigslist.org/search/apa?s=300,http://washingtondc.craigslist.org/nva/apa/4761772031.html,2014-11-14 18:04,479.0,-77.059568,38.860533000000004
10819 Gambril Drive,"Move into style with this 2BR 2BA, grand foyer, and great amenities",1395.0,2.0,4761805472,http://washingtondc.craigslist.org/search/apa?s=300,http://washingtondc.craigslist.org/nva/apa/4761805472.html,2014-11-14 18:03,1114.0,-77.5266,38.793
AU/Wisonsin Ave NW/Tenleytown Metro,"Ginormous 2Br2Ba MOVE IN $PECIAL$ Near AU, Metro, W/D, Parking",3500.0,2.0,4734735854,http://washingtondc.craigslist.org/search/apa?s=200,http://washingtondc.craigslist.org/doc/apa/4734735854.html,2014-11-14 18:27,1046.0,,
Tenleytown Metro/AU/Red Line,"Cozy Studio+Separate Sleeping Area Near AU/Metro, W/D, Parking, PetsOK",1580.0,,4734724800,http://washingtondc.craigslist.org/search/apa?s=200,http://washingtondc.craigslist.org/doc/apa/4734724800.html,2014-11-14 18:27,500.0,,
Alexandria / Arlington Ridge,Awesome 1 BR in Gorgeous Community between Del Ray & Shirlington!,1228.0,1.0,4761828287,http://washingtondc.craigslist.org/search/apa?s=200,http://washingtondc.craigslist.org/nva/apa/4761828287.html,2014-11-14 18:26,595.0,-77.069218,38.84304
,"Save $2,500 on HUGE, AMAZING 2BR-Den Home, City Views, Natural Light!",4410.0,2.0,4761836550,http://washingtondc.craigslist.org/search/apa?s=200,http://washingtondc.craigslist.org/doc/apa/4761836550.html,2014-11-14 18:26,1560.0,-77.051408,38.905260999999996
"3101 N Hampton Dr #1210, Alexandria, VA",Luxury One-Bedroom Condo w/Den,1695.0,1.0,4744066150,http://washingtondc.craigslist.org/search/apa?s=200,http://washingtondc.craigslist.org/nva/apa/4744066150.html,2014-11-14 18:26,885.0,-77.105441,38.838353999999995
Logan Circle,"You could fit a Bed in the Closet, it's that Big",1505.0,,4761807047,http://washingtondc.craigslist.org/search/apa?s=200,http://washingtondc.craigslist.org/doc/apa/4761807047.html,2014-11-14 18:25,422.0,-77.034094,38.907866
Tysons Corner,3 bedrooms 1.5 bathrooms Good Schools RTO stainless fridge,1495.0,4.0,4761720026,http://washingtondc.craigslist.org/search/apa?s=100,http://washingtondc.craigslist.org/nva/apa/4761720026.html,2014-11-14 18:43,1507.0,,
,Reduced Rents !!!,1330.0,1.0,4761819847,http://washingtondc.craigslist.org/search/apa?s=100,http://washingtondc.craigslist.org/nva/apa/4761819847.html,2014-11-14 18:43,683.0,-77.27486,38.628823
Adams Morgan,"Showing Saturday, Open Plan Studio with 3 Closets and December Free!",1650.0,,4761874436,http://washingtondc.craigslist.org/search/apa?s=100,http://washingtondc.craigslist.org/doc/apa/4761874436.html,2014-11-14 18:42,,-77.040116,38.921651000000004
4457 Oakdale Crescent Court ,2-Bedroom w/ ALL the Perks! Great Location!,1620.0,,4761814942,http://washingtondc.craigslist.org/search/apa?s=100,http://washingtondc.craigslist.org/nva/apa/4761814942.html,2014-11-14 18:42,1124.0,-77.351464,38.850955
Arlington (Ballston,House for Rent w/ 3-4 Bdrms; 6 Month Rental; Walk to Metro,3900.0,4.0,4761873054,http://washingtondc.craigslist.org/search/apa?s=100,http://washingtondc.craigslist.org/nva/apa/4761873054.html,2014-11-14 18:41,2300.0,-77.11672800000001,38.890231
Penn Quarter Gallery Place/Metro Center,1 Bedroom 1 Bath Granite Countertops,2308.0,1.0,4761872924,http://washingtondc.craigslist.org/search/apa?s=100,http://washingtondc.craigslist.org/doc/apa/4761872924.html,2014-11-14 18:41,606.0,-77.02296199999999,38.894796
alexandria va,The Choice is Crystal Clear at Crystal Woods! Amazing Rent Special!,1699.0,2.0,4761803678,http://washingtondc.craigslist.org/search/apa?s=100,http://washingtondc.craigslist.org/nva/apa/4761803678.html,2014-11-14 18:41,1020.0,,
ANNANDALE,Beautiful 1 bedroom APT,1200.0,1.0,4761846231,http://washingtondc.craigslist.org/search/apa,http://washingtondc.craigslist.org/nva/apa/4761846231.html,2014-11-14 19:15,912.0,-77.211568,38.828069
,Don't wait! These move-in deals are going fast!,1306.0,1.0,4761781687,http://washingtondc.craigslist.org/search/apa,http://washingtondc.craigslist.org/nva/apa/4761781687.html,2014-11-14 19:15,790.0,-77.446377,38.841268
"Laurel, MD ",Beautiful Single-Family Home 1 bd 1 ba Available Now,570.0,1.0,4756107768,http://washingtondc.craigslist.org/search/apa,http://washingtondc.craigslist.org/mld/apa/4756107768.html,2014-11-14 19:15,918.0,-76.856257,39.069318
Silver Spring,"Beautiful 2BR, Floor-to-Ceiling Windows, FREE RENT IN DECEMBER",2839.0,,4761881306,http://washingtondc.craigslist.org/search/apa,http://washingtondc.craigslist.org/mld/apa/4761881306.html,2014-11-14 19:15,1340.0,-77.027908,38.999668
Temple Hills- Top of the Hill area,"Garage Townhouse- 3 level- off Branch Ave, near Sams Car Wash",1595.0,3.0,4742614889,http://washingtondc.craigslist.org/search/apa,http://washingtondc.craigslist.org/mld/apa/4742614889.html,2014-11-14 19:15,1600.0,-76.95638000000001,38.845346
"Park Road, NW",Upper level of row house- 5 blocks to Wash Hospital Center,1795.0,2.0,4742615721,http://washingtondc.craigslist.org/search/apa,http://washingtondc.craigslist.org/doc/apa/4742615721.html,2014-11-14 19:14,850.0,-77.02041899999999,38.932534999999994
Lorton VA,LARGE 2 BR CONDO IN LORTON,1600.0,2.0,4733007702,http://washingtondc.craigslist.org/search/apa,http://washingtondc.craigslist.org/nva/apa/4733007702.html,2014-11-14 19:14,1200.0,-77.229649,38.706253000000004
H Street/ NoMa,2 bedroom 2 bath as low as $2634! Call and Tour Avalon 1st+M today!,2634.0,2.0,4761731155,http://washingtondc.craigslist.org/search/apa?s=400,http://washingtondc.craigslist.org/doc/apa/4761731155.html,2014-11-14 17:51,1144.0,-77.00588499999999,38.905219
Rosslyn,Great 2 Br Apt in the Heart of Rosslyn! 2 Blocks 2 Metro!!,2495.0,2.0,4761772202,http://washingtondc.craigslist.org/search/apa?s=400,http://washingtondc.craigslist.org/nva/apa/4761772202.html,2014-11-14 17:51,941.0,-77.073944,38.895303000000006
Reston,♥~♥ 5 BR. HousE @Reston♥~♥,2500.0,5.0,4761762737,http://washingtondc.craigslist.org/search/apa?s=400,http://washingtondc.craigslist.org/nva/apa/4761762737.html,2014-11-14 17:51,1040.0,-77.3527,38.9318
"McLean, va","Reduced! Sunny, spacious condo in great area near Tysons & Metro",1990.0,3.0,4750201616,http://washingtondc.craigslist.org/search/apa?s=400,http://washingtondc.craigslist.org/nva/apa/4750201616.html,2014-11-14 17:51,2176.0,-77.198825,38.922425
Arlington,The BEST DEAL--GORGEOUS 2bed 2bath in ARLINGTON,1800.0,2.0,4751808052,http://washingtondc.craigslist.org/search/apa?s=400,http://washingtondc.craigslist.org/nva/apa/4751808052.html,2014-11-14 17:51,,,
"3800 Porter Street, NW Washington, DC",RENT FREE UNTIL 2015!*** Unique One Level Townhome w/ Hardwood Floors ,2245.0,1.0,4761726207,http://washingtondc.craigslist.org/search/apa?s=400,http://washingtondc.craigslist.org/doc/apa/4761726207.html,2014-11-14 17:51,800.0,-77.075975,38.93735
Spotsylvania ,Enjoy the Holiday at Brittany Commons,1099.0,2.0,4761768696,http://washingtondc.craigslist.org/search/apa?s=400,http://washingtondc.craigslist.org/nva/apa/4761768696.html,2014-11-14 17:50,9914.0,-77.6447,38.271
Fairlington,Lovely Patio Apartment! Move in Early January!,1305.0,1.0,4761798838,http://washingtondc.craigslist.org/search/apa?s=400,http://washingtondc.craigslist.org/nva/apa/4761798838.html,2014-11-14 17:50,660.0,,
5797 A Rayburn Avenue ,ONE BEDROOMS AVAILABLE NOW!! CATCH THE FREE SHUTTLE!!!,1180.0,1.0,4761809653,http://washingtondc.craigslist.org/search/apa?s=300,http://washingtondc.craigslist.org/nva/apa/4761809653.html,2014-11-14 18:03,700.0,-77.12479599999999,38.831784999999996
Arlington,1 Bdrm Condo Baileys Crossroads,1395.0,1.0,4761818244,http://washingtondc.craigslist.org/search/apa?s=300,http://washingtondc.craigslist.org/nva/apa/4761818244.html,2014-11-14 18:03,900.0,-77.12185600000001,38.853378
Laurel,2 bedroom condo for rent,1200.0,2.0,4761735470,http://washingtondc.craigslist.org/search/apa?s=300,http://washingtondc.craigslist.org/nva/apa/4761735470.html,2014-11-14 18:02,700.0,-76.865267,39.086306
Tysons Corner,Lease Your Dream Apt This Weekend! No Rent Until February!!!!,2360.0,1.0,4761764011,http://washingtondc.craigslist.org/search/apa?s=300,http://washingtondc.craigslist.org/nva/apa/4761764011.html,2014-11-14 18:02,707.0,-77.237105,38.927082
,beautiful 5br 3ba in Bethesda,4200.0,5.0,4753155798,http://washingtondc.craigslist.org/search/apa?s=300,http://washingtondc.craigslist.org/mld/apa/4753155798.html,2014-11-14 18:02,,-77.12116999999999,38.963512
Georgetown,2 Bedroom Georgetown Waterfront Gem! ,3395.0,2.0,4738737238,http://washingtondc.craigslist.org/search/apa?s=300,http://washingtondc.craigslist.org/doc/apa/4738737238.html,2014-11-14 18:02,1137.0,-77.065972,38.903473
"NE,DC",Brand NEW*Luxurious Modern Living*1 Month FREE,2882.0,2.0,4761816777,http://washingtondc.craigslist.org/search/apa?s=300,http://washingtondc.craigslist.org/doc/apa/4761816777.html,2014-11-14 18:02,1170.0,-77.00353299999999,38.908793
Penn Quarter Gallery Place/Metro Center,1 Bedroom/ 1 Bath,2298.0,1.0,4761850304,http://washingtondc.craigslist.org/search/apa?s=200,http://washingtondc.craigslist.org/doc/apa/4761850304.html,2014-11-14 18:25,609.0,-77.02296199999999,38.894796
Beltsville,"Call for Details, Fitness Center, Near Public Parks",1047.0,1.0,4761843186,http://washingtondc.craigslist.org/search/apa?s=200,http://washingtondc.craigslist.org/mld/apa/4761843186.html,2014-11-14 18:25,705.0,,
,"Amazingly Priced Large Renovated Studio, Lease Now & Save Big!",2065.0,,4761830853,http://washingtondc.craigslist.org/search/apa?s=200,http://washingtondc.craigslist.org/doc/apa/4761830853.html,2014-11-14 18:24,619.0,-77.051408,38.905260999999996
Woodley Park NW DC,Bright Luxury 2 Bedroom 2 Bath Condo Available Now! Close to Metro! ,2750.0,2.0,4751426783,http://washingtondc.craigslist.org/search/apa?s=200,http://washingtondc.craigslist.org/doc/apa/4751426783.html,2014-11-14 18:24,1170.0,-77.054039,38.923526
"Dupont, 17th & T, N/W",Live above the Trees in a Furnished 4th Floor 1Bed/1Bath ,2700.0,1.0,4757550727,http://washingtondc.craigslist.org/search/apa?s=100,http://washingtondc.craigslist.org/doc/apa/4757550727.html,2014-11-14 18:40,700.0,-77.03636999999999,38.895109999999995
Woodbridge VA 22191,HURRY UP!!! Great Deal,900.0,,4755282474,http://washingtondc.craigslist.org/search/apa?s=100,http://washingtondc.craigslist.org/nva/apa/4755282474.html,2014-11-14 18:40,,,
,4br3ba single family home in Bethesda,3195.0,4.0,4761853766,http://washingtondc.craigslist.org/search/apa?s=100,http://washingtondc.craigslist.org/mld/apa/4761853766.html,2014-11-14 18:40,,-77.09155200000001,39.006309
Bethesda,"Pet Friendly, Garden Style, Bethesda Apartment",1595.0,1.0,4761865868,http://washingtondc.craigslist.org/search/apa?s=100,http://washingtondc.craigslist.org/mld/apa/4761865868.html,2014-11-14 18:40,620.0,-77.117692,38.947533
